city,state,latitude,longitude
New York,NY,40.7127281,-74.0060152
Los Angeles,CA,34.0536909,-118.242766
Chicago,IL,41.8755616,-87.6244212
Houston,TX,29.7589382,-95.3676974
Phoenix,AZ,33.4484367,-112.0741417
Philadelphia,PA,39.9527237,-75.1635262
San Antonio,TX,29.4246002,-98.4951405
San Diego,CA,32.7174202,-117.1627728
Dallas,TX,32.7762719,-96.7968559
San Jose,CA,37.3361905,-121.890583
Austin,TX,30.2711286,-97.7436995
Jacksonville,FL,30.3321838,-81.655651
Fort Worth,TX,32.753177,-97.3327459
Columbus,OH,39.9622601,-83.0007065
Charlotte,NC,35.2272086,-80.8430827
San Francisco,CA,37.7790262,-122.419906
Indianapolis,IN,39.7683331,-86.1583502
Seattle,WA,47.6038321,-122.3300624
Denver,CO,39.7392364,-104.9848623
Washington,DC,38.8950368,-77.0365427
Boston,MA,42.3602534,-71.0582912
El Paso,TX,31.7754152,-106.464634
Nashville-Davidson,TN,36.1622767,-86.7742984
Detroit,MI,42.3315509,-83.0466403
Oklahoma City,OK,35.4729886,-97.5170536
Portland,OR,45.5202471,-122.6741949
Las Vegas,NV,36.1672559,-115.148516
Memphis,TN,35.1335022,-89.9668758
Louisville/Jefferson County,KY,38.209237,-85.7038502
Baltimore,MD,39.2908816,-76.610759
Milwaukee,WI,43.0349931,-87.922497
Albuquerque,NM,35.21287095,-106.7132485
Tucson,AZ,32.2228765,-110.9748477
Fresno,CA,36.7295295,-119.7088613
Mesa,AZ,33.4151117,-111.8314792
Sacramento,CA,38.5810606,-121.493895
Atlanta,GA,33.7489924,-84.3902644
Kansas City,MO,39.100105,-94.5781416
Colorado Springs,CO,38.8339578,-104.825348
Omaha,NE,41.2587459,-95.9383758
Raleigh,NC,35.7803977,-78.6390989
Miami,FL,25.7741728,-80.19362
Long Beach,CA,33.7690164,-118.191604
Virginia Beach,VA,36.8529841,-75.9774183
Oakland,CA,37.8044557,-122.2713563
Minneapolis,MN,44.9772995,-93.2654692
Tulsa,OK,36.1556805,-95.9929113
Tampa,FL,27.9477595,-82.458444
Arlington,TX,32.701939,-97.10562379
New Orleans,LA,29.9759983,-90.0782127
Wichita,KS,37.6922361,-97.3375448
Bakersfield,CA,35.3738712,-119.0194639
Cleveland,OH,41.4996562,-81.6936813
Aurora,CO,39.7405111,-104.8309947
Anaheim,CA,33.8347516,-117.911732
Honolulu,HI,21.304547,-157.855676
Santa Ana,CA,33.7494951,-117.8732213
Riverside,CA,33.9459413,-117.4102444
Corpus Christi,TX,27.7951482,-97.3942053
Lexington-Fayette,KY,38.0464066,-84.4970393
Henderson,NV,36.0301134,-114.9826194
Stockton,CA,37.9577016,-121.2907796
St. Paul,MN,44.9497487,-93.0931028
Cincinnati,OH,39.1014537,-84.5124602
St. Louis,MO,38.6264256,-90.1995853
Pittsburgh,PA,40.4416941,-79.9900861
Greensboro,NC,36.0726355,-79.7919754
Lincoln,NE,40.8088861,-96.7077751
Anchorage,AK,61.2163129,-149.894852
Plano,TX,33.0136764,-96.6925096
Orlando,FL,28.5421109,-81.3790304
Irvine,CA,33.6856969,-117.8259819
Newark,NJ,40.735657,-74.1723667
Durham,NC,35.9825698,-78.90918653
Chula Vista,CA,32.6400541,-117.0841955
Toledo,OH,41.6529143,-83.5378173
Fort Wayne,IN,41.0799898,-85.1386015
St. Petersburg,FL,27.7703796,-82.6695085
Laredo,TX,27.5236998,-99.497352
Jersey City,NJ,40.7215682,-74.047455
Chandler,AZ,33.3061605,-111.84125
Madison,WI,43.074761,-89.3837613
Lubbock,TX,33.5635206,-101.879336
Scottsdale,AZ,33.4942189,-111.9260184
Reno,NV,39.5261206,-119.8126581
Buffalo,NY,42.8867166,-78.8783922
Gilbert,AZ,33.3527632,-111.7890373
Glendale,AZ,33.5386858,-112.1859941
North Las Vegas,NV,36.2005843,-115.121584
Winston-Salem,NC,36.0998131,-80.2440518
Chesapeake,VA,36.7183708,-76.2466798
Norfolk,VA,36.8968052,-76.2602336
Fremont,CA,37.5482697,-121.988571
Garland,TX,32.912624,-96.6388833
Irving,TX,32.8295183,-96.9442177
Hialeah,FL,25.8670439,-80.29146452
Richmond,VA,37.5385087,-77.43428
Boise City,ID,43.6166163,-116.200886
Spokane,WA,47.6571934,-117.4235106
Baton Rouge,LA,30.4459596,-91.18738
Tacoma,WA,47.2495798,-122.4398746
San Bernardino,CA,34.8253019,-116.0833144
Modesto,CA,37.6390972,-120.9968782
Fontana,CA,34.0922335,-117.435048
Des Moines,IA,41.5910323,-93.6046655
Moreno Valley,CA,33.937517,-117.2305944
Santa Clarita,CA,34.3916641,-118.542586
Fayetteville,NC,35.0525759,-78.878292
Birmingham,AL,33.5206824,-86.8024326
Oxnard,CA,34.1976308,-119.1803818
Rochester,NY,43.157285,-77.615214
Port St. Lucie,FL,27.2939333,-80.3503283
Grand Rapids,MI,42.9632405,-85.6678639
Huntsville,AL,34.729847,-86.5859011
Salt Lake City,UT,40.7596198,-111.8867975
Frisco,TX,33.1506744,-96.8236116
Yonkers,NY,40.9312099,-73.8987469
Amarillo,TX,35.2072185,-101.8338246
Glendale,CA,34.1469416,-118.2478471
Huntington Beach,CA,33.6783336,-118.0000166
McKinney,TX,33.1976496,-96.6154471
Montgomery,AL,32.3669656,-86.3006485
Augusta-Richmond County,GA,33.4709714,-81.9748429
Aurora,IL,41.7571701,-88.3147539
Akron,OH,41.083064,-81.518485
Little Rock,AR,34.7465071,-92.2896267
Tempe,AZ,33.4255056,-111.9400091
Columbus,GA,32.4610708,-84.9880449
Overland Park,KS,38.9742502,-94.6851702
Grand Prairie,TX,32.7459645,-96.9977846
Tallahassee,FL,30.4380832,-84.2809332
Cape Coral,FL,26.6059432,-81.9806771
Mobile,AL,30.6943566,-88.0430541
Knoxville,TN,35.9603948,-83.9210261
Shreveport,LA,32.5221828,-93.7651944
Worcester,MA,42.2625621,-71.8018877
Ontario,CA,34.065846,-117.6484304
Vancouver,WA,45.6306954,-122.6744557
Sioux Falls,SD,43.5460587,-96.7313928
Chattanooga,TN,35.0457219,-85.3094883
Brownsville,TX,25.9140256,-97.4890856
Fort Lauderdale,FL,26.1223084,-80.1433786
Providence,RI,41.8239891,-71.4128343
Newport News,VA,36.9775016,-76.42977
Rancho Cucamonga,CA,34.1279268,-117.5643221
Santa Rosa,CA,38.4404925,-122.7141049
Peoria,AZ,33.5806115,-112.237294
Oceanside,CA,33.1958696,-117.3794834
Elk Grove,CA,38.4087993,-121.3716178
Salem,OR,44.9391565,-123.033121
Pembroke Pines,FL,26.0031465,-80.223937
Eugene,OR,44.0505054,-123.0950506
Garden Grove,CA,33.7746292,-117.9463717
Cary,NC,35.7882893,-78.7812081
Fort Collins,CO,40.5508527,-105.0668085
Corona,CA,33.8752945,-117.5664449
Springfield,MO,37.2166779,-93.2920373
Jackson,MS,32.2990021,-90.1847691
Alexandria,VA,38.8051095,-77.0470229
Hayward,CA,37.6688205,-122.080796
Clarksville,TN,36.5277607,-87.3588703
Lakewood,CO,39.7085736,-105.0846694
Lancaster,CA,34.6981064,-118.1366153
Salinas,CA,36.6744117,-121.6550372
Palmdale,CA,34.5793131,-118.1171108
Hollywood,FL,26.0112014,-80.1494901
Springfield,MA,42.1018764,-72.5886727
Macon-Bibb County,GA,32.8406946,-83.6324022
Kansas City,KS,39.100105,-94.5781416
Sunnyvale,CA,37.3688301,-122.036349
Pomona,CA,34.0553813,-117.7517496
Killeen,TX,31.1171441,-97.727796
Escondido,CA,33.1216751,-117.0814849
Pasadena,TX,29.6910625,-95.2091006
Naperville,IL,41.7728699,-88.1479278
Bellevue,WA,47.6144219,-122.192337
Joliet,IL,41.5263603,-88.0840212
Murfreesboro,TN,35.8460396,-86.3921096
Midland,TX,32.02393955,-102.0964892
Rockford,IL,42.2713945,-89.093966
Paterson,NJ,40.9167654,-74.171811
Savannah,GA,32.0809263,-81.0911768
Bridgeport,CT,41.1670412,-73.2048348
Torrance,CA,33.8358492,-118.3406288
McAllen,TX,26.204114,-98.2300605
Syracuse,NY,43.0481221,-76.1474244
Surprise,AZ,33.6292271,-112.3680189
Denton,TX,33.1838787,-97.1413417
Roseville,CA,38.7521235,-121.2880059
Thornton,CO,39.8695516,-104.985181
Miramar,FL,25.9873137,-80.2322706
Pasadena,CA,34.1476452,-118.1444779
Mesquite,TX,32.7666103,-96.599472
Olathe,KS,38.8838856,-94.81887
Dayton,OH,39.7589478,-84.1916069
Carrollton,TX,32.9537349,-96.8902816
Waco,TX,31.549333,-97.1466695
Orange,CA,33.7500378,-117.8704931
Fullerton,CA,33.8739385,-117.9243399
Charleston,SC,32.7876012,-79.9402728
West Valley City,UT,40.6967254,-111.9868211
Visalia,CA,36.3302284,-119.2920585
Hampton,VA,37.0300969,-76.3452057
Gainesville,FL,29.6519684,-82.3249846
Warren,MI,42.4932575,-83.0062746
Coral Springs,FL,26.271192,-80.2706044
Cedar Rapids,IA,41.9758872,-91.6704053
Round Rock,TX,30.5085915,-97.6788056
Sterling Heights,MI,42.5803122,-83.0302033
Kent,WA,47.3826903,-122.2270272
Columbia,SC,38.88974405,-77.04086076
Santa Clara,CA,37.2333253,-121.6846349
New Haven,CT,41.3082138,-72.9250518
Stamford,CT,41.0534302,-73.5387341
Concord,CA,37.9768525,-122.0335624
Elizabeth,NJ,40.6639916,-74.2107006
Athens-Clarke County,GA,33.9458693,-83.3557816
Thousand Oaks,CA,34.1705609,-118.8375937
Lafayette,LA,30.2043259,-92.0298813
Simi Valley,CA,34.2677404,-118.7538071
Topeka,KS,39.049011,-95.677556
Norman,OK,35.2225717,-97.4394816
Fargo,ND,46.877229,-96.789821
Wilmington,NC,34.2257282,-77.9447107
Abilene,TX,32.44645,-99.7475905
Odessa,TX,31.8457149,-102.367687
Columbia,MO,38.9464035,-92.34846316
Pearland,TX,29.5639758,-95.2864299
Victorville,CA,34.5361067,-117.2911565
Hartford,CT,41.764582,-72.6908547
Vallejo,CA,38.1040864,-122.2566367
Allentown,PA,40.6022059,-75.4712794
Berkeley,CA,37.8753497,-122.2396336
Richardson,TX,32.9481789,-96.7297206
Arvada,CO,39.8005505,-105.0811573
Ann Arbor,MI,42.2681569,-83.7312291
Rochester,MN,44.0234387,-92.4630182
Cambridge,MA,42.3750997,-71.1056157
Sugar Land,TX,29.6196787,-95.6349463
Lansing,MI,42.7337712,-84.5553805
Evansville,IN,37.9747645,-87.5558483
College Station,TX,30.5955289,-96.3071042
Fairfield,CA,38.2493581,-122.039966
Clearwater,FL,27.9658533,-82.8001026
Beaumont,TX,30.0860459,-94.1018461
Independence,MO,39.0924792,-94.4137923
Provo,UT,40.2337289,-111.6587085
West Jordan,UT,40.6061308,-111.9396586
Murrieta,CA,33.5777524,-117.1884542
Palm Bay,FL,27.9946969,-80.6366144
El Monte,CA,34.0751571,-118.036849
Carlsbad,CA,33.1580933,-117.3505966
North Charleston,SC,32.9131295,-80.0629982
Temecula,CA,33.4946353,-117.1473661
Clovis,CA,36.8252277,-119.7029194
Springfield,IL,39.7990175,-89.6439575
Meridian,ID,43.6086295,-116.392326
Westminster,CO,39.8366528,-105.0372046
Costa Mesa,CA,33.6636611,-117.9194652
High Point,NC,35.9556924,-80.0053176
Manchester,NH,42.9956397,-71.4547891
Pueblo,CO,38.2544472,-104.609141
Lakeland,FL,28.0394654,-81.9498042
Pompano Beach,FL,26.2378597,-80.1247667
West Palm Beach,FL,26.715364,-80.0532942
Antioch,CA,38.0049214,-121.805789
Everett,WA,47.9673056,-122.201399
Downey,CA,33.942215,-118.1235646
Lowell,MA,42.6334247,-71.3161718
Centennial,CO,39.579155,-104.8769227
Elgin,IL,42.03726,-88.2810994
Richmond,CA,37.9357576,-122.347748
Peoria,IL,40.6938609,-89.5891008
Broken Arrow,OK,36.0185695,-95.79088215
Miami Gardens,FL,25.9423108,-80.23976495
Billings,MT,45.7874957,-108.49607
Jurupa Valley,CA,33.9798472,-117.4515754
Sandy Springs,GA,33.9242688,-84.3785379
Gresham,OR,45.4997475,-122.4309766
Lewisville,TX,33.046233,-96.994174
Hillsboro,OR,45.5228939,-122.989827
San Buenaventura (Ventura),CA,34.3640573,-119.3110159
Greeley,CO,40.4233142,-104.7091322
Inglewood,CA,33.9562003,-118.353132
Waterbury,CT,41.5538091,-73.0438362
League City,TX,29.5074538,-95.0949303
Santa Maria,CA,34.9531295,-120.4358577
Tyler,TX,32.3512601,-95.3010624
Davie,FL,26.0628665,-80.2331038
Daly City,CA,37.6904826,-122.47267
Boulder,CO,40.0149856,-105.270545
Allen,TX,33.1031744,-96.6705503
West Covina,CA,34.0471735,-117.8963243
Sparks,NV,39.5404679,-119.7487235
Wichita Falls,TX,33.9137085,-98.4933873
Green Bay,WI,44.5126379,-88.0125794
San Mateo,CA,37.496904,-122.3330573
Norwalk,CA,33.9092802,-118.0849169
Rialto,CA,34.1064001,-117.3703235
Las Cruces,NM,32.3140354,-106.7798078
Chico,CA,39.7284945,-121.8374777
El Cajon,CA,32.7947731,-116.962526
Burbank,CA,34.1816482,-118.3258554
South Bend,IN,41.6833813,-86.2500066
Renton,WA,47.4799078,-122.2034496
Vista,CA,33.2000368,-117.2425355
Davenport,IA,41.5236436,-90.5776368
Edinburg,TX,26.3013982,-98.1624501
Tuscaloosa,AL,33.2095614,-87.5675258
Carmel,IN,39.9788017,-86.1189257
Spokane Valley,WA,47.6571104,-117.2613936
San Angelo,TX,31.4649685,-100.4405094
Vacaville,CA,38.3565773,-121.9877444
Bend,OR,44.0581728,-121.3153096
Kenosha,WI,42.5846773,-87.8212263
Boca Raton,FL,26.3586885,-80.0830984
Lee's Summit,MO,38.9107156,-94.3821295
Nampa,ID,43.5737361,-116.559631
Rio Rancho,NM,35.269381,-106.632819
South Fulton,GA,33.5902659,-84.6712292
Roanoke,VA,37.270973,-79.9414313
Beaverton,OR,45.4871723,-122.80378
Yuma,AZ,32.665135,-114.4760316
Lawrence,KS,38.9719384,-95.2359496
Orem,UT,40.2981599,-111.6944313
Longmont,CO,40.1672117,-105.1019287
San Marcos,CA,33.1433723,-117.1661449
Albany,NY,42.6511674,-73.754968
Sandy,UT,40.5710454,-111.8953815
Concord,NC,35.4094178,-80.5800049
Federal Way,WA,47.313494,-122.3393103
Hesperia,CA,34.4263886,-117.3008784
Brockton,MA,42.0834335,-71.0183787
Compton,CA,33.894927,-118.226624
Flint,MI,43.0161693,-83.6900211
Erie,PA,42.1294712,-80.0852695
New Bedford,MA,41.6362152,-70.934205
Fishers,IN,39.9555928,-86.0138729
Sunrise,FL,26.1471902,-80.32966129
Roswell,GA,34.02332,-84.360022
Menifee,CA,33.6864432,-117.1770437
Tracy,CA,37.7385507,-121.4201395
Plantation,FL,26.12744855,-80.25779068
Quincy,MA,42.2509914,-71.0037374
Portsmouth,VA,36.8444196,-76.3532998
Mission Viejo,CA,33.5965685,-117.659405
Chino,CA,34.0133561,-117.690075
Lynn,MA,42.466763,-70.9494939
Edmond,OK,35.6571367,-97.4649038
Dearborn,MI,42.3222599,-83.1763145
Livonia,MI,42.36837,-83.3527097
Yakima,WA,46.601557,-120.510842
South Gate,CA,33.9463456,-118.200981
Greenville,NC,35.613224,-77.3724593
Lawton,OK,34.6086854,-98.3903305
Kirkland,WA,47.6859573,-122.1920249
Asheville,NC,35.6009498,-82.5540161
Deltona,FL,28.9005446,-81.2636738
Redding,CA,40.5863563,-122.391675
Bellingham,WA,48.7544012,-122.4788361
Suffolk,VA,36.7282096,-76.5835703
Indio,CA,33.743765,-116.2233152
Mount Pleasant,SC,32.7940651,-79.8625851
Carson,CA,33.8322043,-118.2517547
Santa Barbara,CA,34.4221319,-119.7026673
Conroe,TX,30.3118769,-95.4560512
Westminster,CA,33.7578725,-117.9859054
Santa Monica,CA,34.0194704,-118.4912273
New Braunfels,TX,29.7028266,-98.1257348
Livermore,CA,37.6820583,-121.7680531
Palm Coast,FL,29.5541432,-81.2207673
St. George,UT,37.104153,-113.5841313
Fall River,MA,41.7010642,-71.1546367
Nashua,NH,42.7656251,-71.4677032
Champaign,IL,40.1164841,-88.2430932
Miami Beach,FL,25.7929198,-80.1353006
Norwalk,CT,41.1175966,-73.4078968
San Leandro,CA,37.7249296,-122.1560768
O'Fallon,MO,38.7910374,-90.7039107
Newton,MA,42.3370414,-71.2092214
Reading,PA,40.335345,-75.9279495
Avondale,AZ,33.4355977,-112.349602
Fort Smith,AR,35.3784666,-94.3996456
Citrus Heights,CA,38.7071247,-121.2810611
Ogden,UT,41.2230048,-111.9738429
Fayetteville,AR,36.0625843,-94.1574328
Fort Myers,FL,26.640628,-81.8723084
Goodyear,AZ,33.4353672,-112.3576
Bryan,TX,30.6743643,-96.3699632
Waukegan,IL,42.3636331,-87.8447938
Hawthorne,CA,33.9188589,-118.3483256
Redwood City,CA,37.4863239,-122.232523
Hoover,AL,33.4092646,-86.66217961
Bloomington,IN,39.1670396,-86.5342881
Duluth,MN,46.7729322,-92.1251218
Lake Forest,CA,33.6469261,-117.6859213
Hemet,CA,33.7475203,-116.9719684
Whittier,CA,33.9708782,-118.0308396
Clifton,NJ,40.8584328,-74.1637553
Largo,FL,27.9094665,-82.7873244
Bloomington,MN,44.8322405,-93.3204872
Danbury,CT,41.394817,-73.4540111
Santa Fe,NM,35.6876096,-105.9384569
Johns Creek,GA,34.0181557,-84.190196
Newport Beach,CA,33.6170092,-117.9294401
Kennewick,WA,46.2087066,-119.1199192
Mission,TX,26.2159066,-98.3252932
Milpitas,CA,37.4282771,-121.9069256
Troy,MI,42.6055893,-83.1499304
Chino Hills,CA,33.9926803,-117.760056
Alhambra,CA,34.093042,-118.12706
Merced,CA,37.1641544,-120.7678602
Trenton,NJ,40.2170575,-74.7429463
Franklin,TN,35.925206,-86.8689419
Medford,OR,42.3264181,-122.8718605
Melbourne,FL,28.106471,-80.6371513
Manteca,CA,37.7986184,-121.2117148
Mountain View,CA,37.3893889,-122.0832101
Sioux City,IA,42.4966815,-96.4058782
Lynchburg,VA,37.4137536,-79.1422464
Buena Park,CA,33.870413,-117.9962165
Pleasanton,CA,37.6624312,-121.8746789
Longview,TX,32.5007031,-94.74049
Westland,MI,42.3238056,-83.4005321
Auburn,WA,47.3075369,-122.2301808
Cranston,RI,41.7809588,-71.4371257
Somerville,MA,42.3875968,-71.0994968
Folsom,CA,38.6779591,-121.1760583
Springdale,AR,36.1867442,-94.1288142
Deerfield Beach,FL,26.318342,-80.0996306
Warwick,RI,41.7002024,-71.4161108
Cicero,IL,41.8455398,-87.7540199
Farmington Hills,MI,42.4853125,-83.3771553
Brooklyn Park,MN,45.1004807,-93.3443585
Lawrence,MA,42.7070354,-71.1631137
Plymouth,MN,45.0065149,-93.46651
Buckeye,AZ,33.3703197,-112.583776
Georgetown,TX,30.6326942,-97.6772311
Cedar Park,TX,30.5217116,-97.827833
Tustin,CA,33.7458511,-117.826166
Lakewood,CA,33.8503463,-118.1171914
Perris,CA,33.7825194,-117.2286478
Flower Mound,TX,33.0283854,-97.0867203
Pharr,TX,26.1947962,-98.1836216
Loveland,CO,40.3977612,-105.0749801
Boynton Beach,FL,26.5256179,-80.0666026
New Rochelle,NY,40.9115386,-73.7826363
Temple,TX,31.098207,-97.3427847
Lake Charles,LA,30.2265949,-93.2173759
Jonesboro,AR,35.8428646,-90.7034522
Napa,CA,38.2971367,-122.2855293
Parma,OH,41.3822398,-81.7355692
Layton,UT,41.0751048,-111.9741925
Alameda,CA,37.6090291,-121.899142
Warner Robins,GA,32.6200973,-83.606568
Rapid City,SD,44.0869329,-103.2274481
Bloomington,IL,40.4797828,-88.9939147
Gastonia,NC,35.2622158,-81.1838794
Baytown,TX,29.7355047,-94.9774274
Upland,CA,34.09751,-117.6483876
Racine,WI,42.7260523,-87.7825242
Scranton,PA,41.4086874,-75.6621294
South Jordan,UT,40.5584882,-111.9367107
Bellflower,CA,33.8825705,-118.1167679
Kalamazoo,MI,42.291707,-85.5872286
San Ramon,CA,37.7648021,-121.9544387
Bethlehem,PA,40.6178915,-75.3786521
Wyoming,MI,42.9132581,-85.7057035
Hammond,IN,41.5833658,-87.500043
Missoula,MT,46.8701049,-113.995267
Missouri City,TX,29.6185669,-95.5377215
Pasco,WA,46.2306739,-119.0921006
Baldwin Park,CA,34.0854739,-117.9611761
Iowa City,IA,41.6612561,-91.5299106
Rancho Cordova,CA,38.567526,-121.2232054
Rock Hill,SC,34.9248667,-81.0250784
Flagstaff,AZ,35.1987522,-111.6518229
Gary,IN,41.6020962,-87.3370647
St. Joseph,MO,39.7686055,-94.8466322
Arlington Heights,IL,42.0811563,-87.9802164
Bolingbrook,IL,41.7003302,-88.0717708
Rochester Hills,MI,42.6583661,-83.1499322
Framingham,MA,42.3095704,-71.4413097
Union City,CA,37.5963232,-122.0816297
Appleton,WI,44.2613967,-88.4069744
Turlock,CA,37.4946568,-120.8465941
Camden,NJ,39.9448402,-75.1198911
Bismarck,ND,46.808327,-100.783739
Evanston,IL,42.0447388,-87.6930459
Apple Valley,CA,34.5008311,-117.1858759
Schaumburg,IL,42.0333608,-88.083406
Woodbury,MN,44.919896,-92.9339449
Kissimmee,FL,28.2918995,-81.4075838
Southfield,MI,42.4733689,-83.2218731
Maple Grove,MN,45.0984983,-93.4419222
Pittsburg,CA,38.0181745,-121.8901232
New Britain,CT,41.6612104,-72.7795419
Jacksonville,NC,34.7494749,-77.4208221
Mansfield,TX,32.5631924,-97.1416768
Waukesha,WI,43.0053145,-88.2473643
Frederick,MD,39.415779,-77.4127562
Albany,GA,31.5782062,-84.1556809
Pawtucket,RI,41.878711,-71.3825558
Redmond,WA,47.6694141,-122.1238767
Lauderhill,FL,26.1403635,-80.2133808
Lafayette,IN,40.4211664,-86.8943695
Gulfport,MS,30.3674198,-89.0928155
Redlands,CA,34.0550328,-117.1827445
Weston,FL,26.10315835,-80.40284231
St. Charles,MO,38.7877791,-90.6747372
Decatur,IL,39.8454163,-88.9524151
North Port,FL,27.044224,-82.2359254
North Richland Hills,TX,32.8342952,-97.2289029
Greenville,SC,34.851354,-82.3984882
Bowling Green,KY,36.9903199,-86.4436018
Broomfield,CO,39.9403995,-105.0520809
Canton,OH,40.7985464,-81.3749508
Marysville,WA,48.0517429,-122.1768209
Walnut Creek,CA,37.9020731,-122.0618702
Wilmington,DE,39.7459468,-75.546589
Camarillo,CA,34.2176371,-119.0383541
Lynwood,CA,33.924831,-118.2024154
Lehi,UT,40.3881114,-111.8486019
Passaic,NJ,40.8567663,-74.1284764
Homestead,FL,25.4718946,-80.4759905
Delray Beach,FL,26.4614625,-80.0728201
Davis,CA,38.545379,-121.744583
Lake Elsinore,CA,33.6680772,-117.3272615
Daytona Beach,FL,29.2108147,-81.0228331
Dothan,AL,31.2237434,-85.3933906
Rocklin,CA,38.7907339,-121.2357828
Eau Claire,WI,44.811349,-91.4984941
Rogers,AR,36.3320197,-94.1185366
Castle Rock,CO,39.3722552,-104.8586826
St. Cloud,MN,45.5616075,-94.1642004
Bossier City,LA,32.5369356,-93.6952689
Rockville,MD,39.0817985,-77.1516844
Muncie,IN,40.1936892,-85.3865271
Gaithersburg,MD,39.1399187,-77.1929215
Union City,NJ,40.7795455,-74.0237512
West Des Moines,IA,41.5645337,-93.7595281
South San Francisco,CA,37.6535403,-122.4168664
Yorba Linda,CA,33.8901096,-117.8249705
Conway,AR,35.2521996,-92.6888936
Lodi,CA,38.1301968,-121.2724473
Palatine,IL,42.1105779,-88.0336888
Ankeny,IA,41.7318715,-93.6003837
Mount Vernon,NY,40.9125815,-73.8370786
Rowlett,TX,32.9029017,-96.56388
Waterloo,IA,42.4979693,-92.3329637
Lakeville,MN,44.650051,-93.2432791
Alpharetta,GA,34.0709576,-84.2747329
Jackson,TN,35.6144446,-88.8177418
Yuba City,CA,39.1404477,-121.6169108
Oshkosh,WI,44.0206919,-88.5408574
Victoria,TX,28.8026443,-96.9766308
Johnson City,TN,36.3134398,-82.3534728
Redondo Beach,CA,33.8455911,-118.3886766
Tamarac,FL,26.2048464,-80.2708048
Laguna Niguel,CA,33.5225261,-117.7075526
Eagan,MN,44.818173,-93.1659179
Kenner,LA,29.9942265,-90.2417806
Auburn,AL,32.6098566,-85.4807825
Ames,IA,42.0267567,-93.6170448
Portland,ME,43.6610277,-70.2548596
North Little Rock,AR,34.769536,-92.2670941
Sammamish,WA,47.6088445,-122.0423067
Madera,CA,36.9622745,-120.0594685
Shawnee,KS,39.0273676,-95.7627535
Jupiter,FL,26.9342246,-80.0942087
Doral,FL,25.8195424,-80.3553302
Blaine,MN,45.1607987,-93.2349489
Tulare,CA,36.2516475,-118.852583
Youngstown,OH,41.1035786,-80.6520161
Wellington,FL,26.63799875,-80.25590781
Pflugerville,TX,30.4393696,-97.6200043
Palo Alto,CA,37.4443293,-122.1598465
Schenectady,NY,42.8142432,-73.9395687
Harlingen,TX,26.1907543,-97.6960599
Bayonne,NJ,40.6687141,-74.1143091
Eden Prairie,MN,44.8546856,-93.470786
Port Orange,FL,29.10162805,-81.01059618
Dublin,CA,37.7021521,-121.9357918
San Marcos,TX,29.8826436,-97.9405828
Noblesville,IN,40.0455918,-86.0085955
Santa Cruz,CA,37.050096,-121.9905908
Janesville,WI,42.6829765,-89.0226793
San Clemente,CA,33.4270275,-117.6124179
Brentwood,CA,37.9317766,-121.696026
East Orange,NJ,40.767323,-74.2048677
Cheyenne,WY,41.139981,-104.820246
Eastvale,CA,33.9747067,-117.566541
Chapel Hill,NC,35.9131542,-79.05578
Haverhill,MA,42.7777829,-71.0767724
Lorain,OH,41.4673238,-82.1781904
Grand Junction,CO,39.063956,-108.5507317
Springfield,OR,44.0462362,-123.0220289
Coon Rapids,MN,45.1728923,-93.3023898
Idaho Falls,ID,43.4887907,-112.03628
North Miami,FL,25.8900949,-80.1867138
Encinitas,CA,33.0369867,-117.2919818
Skokie,IL,42.0333694,-87.7333972
Leander,TX,30.5603086,-97.8553655
Waltham,MA,42.3756401,-71.2358004
Council Bluffs,IA,41.2621283,-95.8613912
Hamilton,OH,39.3995067,-84.5613428
Moore,OK,35.3395135,-97.4867045
Pico Rivera,CA,33.9830688,-118.096735
Montebello,CA,34.0159398,-118.111975
Millcreek,UT,40.6992918,-111.8555839
Sanford,FL,28.8117345,-81.2680223
National City,CA,32.6781085,-117.0991967
Burnsville,MN,44.7670567,-93.2773887
Coconut Creek,FL,26.2517482,-80.1789351
Lakewood,WA,47.1717649,-122.518458
Taylor,MI,42.240872,-83.2696509
Novi,MI,42.48059,-83.4754913
Marietta,GA,33.9528472,-84.5496148
Ocala,FL,29.1871986,-82.1400923
Terre Haute,IN,39.4667025,-87.4139119
Woodland,CA,38.6786109,-121.7733285
Petaluma,CA,38.2325829,-122.636465
La Habra,CA,33.9316066,-117.9454867
Malden,MA,42.4250964,-71.066163
Commerce City,CO,39.8083196,-104.9338675
Owensboro,KY,37.7742152,-87.1133304
Bristol,CT,41.6735209,-72.9464859
West Allis,WI,43.0166806,-88.0070315
Taylorsville,UT,40.6677096,-111.9385867
Utica,NY,43.1009031,-75.2326641
Monterey Park,CA,34.051522,-118.129807
Bonita Springs,FL,26.3618039,-81.79313612
Porterville,CA,36.06523,-119.0167679
Greenwood,IN,39.6136578,-86.1066526
Bartlett,TN,35.2045329,-89.8739753
Bradenton,FL,27.4989278,-82.5748194
Vineland,NJ,39.4862777,-75.0254256
Pontiac,MI,42.6389216,-83.2910468
Meriden,CT,41.5381535,-72.8070435
Gardena,CA,33.8963593,-118.3053037
Apex,NC,35.7325352,-78.8505516
Royal Oak,MI,42.4894801,-83.1446485
Cupertino,CA,37.3228934,-122.0322895
Lancaster,PA,40.03813,-76.3056686
La Mesa,CA,32.7678288,-117.0230839
Gilroy,CA,37.0065078,-121.5631723
St. Clair Shores,MI,42.4969652,-82.8890965
Des Plaines,IL,42.0415823,-87.8873916
Springfield,OH,39.9234046,-83.810138
Corvallis,OR,44.5645659,-123.2620435
Margate,FL,26.2445263,-80.206436
Bowie,MD,38.9424464,-76.7301718
Casa Grande,AZ,32.8795022,-111.757352
Caldwell,ID,43.6678736,-116.6894156
San Rafael,CA,37.9735346,-122.5310874
Great Falls,MT,47.5048851,-111.29189
Sarasota,FL,27.3365805,-82.5308545
Richland,WA,46.2804298,-119.2752055
St. Peters,MO,38.791612,-90.5958468
Hendersonville,TN,36.3049177,-86.621443
White Plains,NY,41.0339862,-73.7629097
Huntersville,NC,35.4108278,-80.8429304
Santee,CA,32.8383828,-116.9739167
Kokomo,IN,40.4864444,-86.1336351
Arcadia,CA,34.1362075,-118.0401497
Casper,WY,42.8501191,-106.325138
Dubuque,IA,42.5006243,-90.6647985
Orland Park,IL,41.630663,-87.8536288
Weymouth Town,MA,42.2212188,-70.9391625
Parker,CO,39.5184514,-104.7612638
Palm Beach Gardens,FL,26.8233946,-80.1386547
Hanford,CA,36.3274502,-119.6456844
Huntington Park,CA,33.9827043,-118.2120343
Taunton,MA,41.8946107,-71.11113
Midwest City,OK,35.4495097,-97.3967025
Medford,MA,42.4184296,-71.1061639
Euless,TX,32.8457865,-97.06671425
Shoreline,WA,47.7564667,-122.3437497
Smyrna,GA,33.883887,-84.5147454
Pocatello,ID,42.8620287,-112.450627
Valdosta,GA,30.8327022,-83.2784851
Carson City,NV,39.1649125,-119.7666496
Lake Havasu City,AZ,34.4838502,-114.3224495
Grand Forks,ND,47.9078244,-97.0592028
Blue Springs,MO,39.017316,-94.282265
Southaven,MS,34.9873822,-90.0034862
Tinley Park,IL,41.5733669,-87.7844944
Diamond Bar,CA,34.0286226,-117.8103367
New Brunswick,NJ,40.4862174,-74.4518173
Lenexa,KS,38.9697458,-94.7845837
Brookhaven,GA,33.8584368,-84.340203
Novato,CA,38.1061979,-122.5681191
Tigard,OR,45.4307473,-122.771933
Highland,CA,34.11213,-117.1807973
Fountain Valley,CA,33.7038145,-117.9627349
Dearborn Heights,MI,42.3369816,-83.2732627
Albany,OR,44.6365071,-123.1059324
Grapevine,TX,32.9337381,-97.0788754
Apple Valley,MN,44.7319094,-93.21772
Chicopee,MA,42.1487691,-72.6071119
Hempstead,NY,40.6399646,-73.6138556
Oak Lawn,IL,41.7108662,-87.7581081
Cathedral City,CA,33.82298655,-116.4668702
Bentonville,AR,36.3728538,-94.2088172
Stonecrest,GA,33.6831296,-84.1358505
Kettering,OH,39.6895036,-84.1688274
Colton,CA,34.0739016,-117.3136547
Anderson,IN,40.1053196,-85.6802541
West Haven,CT,41.2706527,-72.9470471
Burlington,NC,36.0956918,-79.4377991
Manhattan,KS,39.1836082,-96.5716694
St. Cloud,FL,28.2498534,-81.2839038
Normal,IL,40.5092961,-88.9843937
Decatur,AL,34.6060203,-86.9838165
Berwyn,IL,41.8505874,-87.7936685
Port Arthur,TX,29.8988618,-93.9288723
Kingsport,TN,36.550238,-82.5594293
Minnetonka,MN,44.9405086,-93.4638936
Rosemead,CA,34.0676169,-118.0879763
Paramount,CA,33.898917,-118.171005
Rocky Mount,NC,35.9423833,-77.7956949
Yucaipa,CA,34.033625,-117.0430865
Watsonville,CA,36.9092773,-121.7529071
Elyria,OH,41.3673191,-82.1073583
Leesburg,VA,39.1154496,-77.5645446
Mount Prospect,IL,42.0664167,-87.9372908
Pinellas Park,FL,27.8599115,-82.70437834
Delano,CA,35.7688425,-119.2470536
Bellevue,NE,41.1434547,-95.9124686
West Sacramento,CA,38.5804609,-121.530234
Apopka,FL,28.6779683,-81.5115214
Palm Desert,CA,33.74079965,-116.3693698
Milford,CT,41.2222218,-73.0570603
Little Elm,TX,33.1626194,-96.9375051
Revere,MA,42.4084302,-71.0119948
Peabody,MA,42.5278731,-70.9286609
Wylie,TX,33.0151201,-96.5388789
Harrisonburg,VA,38.4493315,-78.8688833
DeSoto,TX,32.5897831,-96.8570183
Pensacola,FL,30.421309,-87.2169149
Olympia,WA,47.0451022,-122.8950075
Edina,MN,44.8897027,-93.3501222
Wheaton,IL,41.8646959,-88.1101709
West New York,NJ,40.7856117,-74.0093129
Hoboken,NJ,40.7433066,-74.0323752
Lacey,WA,47.0263876,-122.8072257
Summerville,SC,33.0186699,-80.1762704
Coeur d'Alene,ID,47.6742994,-116.7811531
Oak Park,IL,41.8878145,-87.7887615
Elkhart,IN,41.6819935,-85.9766671
Maricopa,AZ,33.34883,-112.49123
Kentwood,MI,42.8694731,-85.6447492
Madison,AL,34.7736807,-86.5675095
Smyrna,TN,35.9824598,-86.5199492
Glendora,CA,34.1361187,-117.865339
Logan,UT,41.7313447,-111.8348631
Burien,WA,47.469918,-122.3485274
Perth Amboy,NJ,40.5067723,-74.2654234
Herriman,UT,40.5139784,-112.0329086
Grand Island,NE,40.924271,-98.338685
Placentia,CA,33.8714814,-117.8617337
La Crosse,WI,43.8014053,-91.2395429
Battle Creek,MI,42.3192548,-85.1824269
Beaumont,CA,33.9299925,-116.9763092
Collierville,TN,35.042036,-89.6645266
West Lafayette,IN,40.4258686,-86.9080655
Florissant,MO,38.7919683,-90.3227803
Hoffman Estates,IL,42.0427256,-88.0792782
Joplin,MO,37.08418,-94.51323
Queen Creek,AZ,33.2483858,-111.6341585
Aliso Viejo,CA,33.5761376,-117.7258122
Kannapolis,NC,35.4874708,-80.621438
Methuen,MA,42.7262016,-71.1908924
Galveston,TX,29.299328,-94.7945882
Mishawaka,IN,41.6611642,-86.1807031
Plainfield,NJ,40.6337136,-74.4073737
Newark,OH,40.0581205,-82.4012643
Stillwater,OK,36.1156306,-97.0585717
Twin Falls,ID,42.5704456,-114.4602554
Texas City,TX,29.396013,-94.9175485
Azusa,CA,34.1338751,-117.9056046
Cerritos,CA,33.8644291,-118.0539323
Bozeman,MT,45.6794293,-111.044047
Coral Gables,FL,25.72149,-80.2683838
Enid,OK,36.3967623,-97.8791341
Lakewood,OH,41.4819932,-81.7981908
Lawrence,IN,39.8386516,-86.0252612
Wilson,NC,35.7212689,-77.9155395
Portage,MI,42.2011538,-85.5800022
Dunwoody,GA,33.9463786,-84.3342686
Poway,CA,32.9628234,-117.0358646
Harrisburg,PA,40.2663107,-76.8861122
San Jacinto,CA,33.7839664,-116.9589086
Troy,NY,42.7284117,-73.6917878
Newark,CA,37.5296593,-122.0402399
Cuyahoga Falls,OH,41.1348213,-81.4848086
Downers Grove,IL,41.7936822,-88.0102281
Bedford,TX,32.844017,-97.1430671
Dublin,OH,40.0992294,-83.1140771
Marana,AZ,32.4446988,-111.215709
Cypress,CA,33.8248235,-118.0399368
Murray,UT,40.6667841,-111.888417
Middletown,OH,39.5150576,-84.3982763
Ceres,CA,37.5949316,-120.9577098
St. Louis Park,MN,44.9475726,-93.3569023
Draper,UT,40.524761,-111.8637305
Palm Springs,CA,33.77217945,-116.4952977
Kyle,TX,29.9892816,-97.877174
Lincoln,CA,38.8598295,-121.3423921
Ocoee,FL,28.5695186,-81.544117
Burleson,TX,30.4764878,-96.6353488
La Mirada,CA,33.9060971,-118.0107092
Farmers Branch,TX,32.9265137,-96.8961151
East Lansing,MI,42.7320307,-84.4721678
Jeffersonville,IN,38.2770227,-85.7371604
Wauwatosa,WI,43.0494122,-88.0079271
Saginaw,MI,43.4200387,-83.9490365
Littleton,CO,39.613321,-105.016649
Columbus,IN,39.2014405,-85.9213796
Sheboygan,WI,43.7508284,-87.71453
Cedar Hill,TX,32.5888072,-96.9553675
Rancho Santa Margarita,CA,33.6408845,-117.6029341
Beavercreek,OH,39.7092262,-84.0632685
Niagara Falls,NY,43.08436,-79.0614686
East Providence,RI,41.8137116,-71.3700545
Roswell,NM,33.3943282,-104.5229518
Chesterfield,MO,38.661953,-90.5643258
San Luis Obispo,CA,35.3540209,-120.3757163
Covina,CA,34.0877926,-117.8891164
Bothell,WA,47.7598697,-122.2068288
Minot,ND,48.23251,-101.296273
Glenview,IL,42.0863023,-87.82609487
Monroe,LA,32.5102427,-92.1032411
Charlottesville,VA,38.029306,-78.4766781
Mentor,OH,41.6664781,-81.3399769
Keller,TX,32.9299655,-97.2271249
Roseville,MI,42.4972583,-82.9371409
Elmhurst,IL,41.8994745,-87.9403418
Mansfield,OH,40.75839,-82.5154471
Titusville,FL,28.6122187,-80.8075538
Euclid,OH,41.5931049,-81.5267873
Salina,KS,38.8402805,-97.6114237
Charleston,WV,38.3505995,-81.6332812
Prescott Valley,AZ,34.6100243,-112.315721
Everett,MA,42.40843,-71.0536625
Middletown,CT,41.5623178,-72.6509061
Biloxi,MS,30.4007626,-88.8893818
Alexandria,LA,31.2909782,-92.4616292
Fort Pierce,FL,27.4467056,-80.3256056
Winter Garden,FL,28.5656649,-81.5856742
Oro Valley,AZ,32.4095168,-110.9806463
Morgan Hill,CA,37.130408,-121.6544974
Rockwall,TX,32.8923464,-96.4066987
Hattiesburg,MS,31.3271189,-89.2903392
Coachella,CA,33.68656595,-116.1532775
Wake Forest,NC,35.9803138,-78.5103731
Cleveland,TN,35.1595182,-84.8766115
Attleboro,MA,41.9438129,-71.2806515
Oakland Park,FL,26.1801443,-80.1372006
Huntington,WV,38.4192496,-82.445154
Winter Haven,FL,28.0222435,-81.7328568
Strongsville,OH,41.3144733,-81.83511
Danville,CA,37.8215929,-121.99996
Barnstable Town,MA,41.7001132,-70.2994666
Riverton,UT,40.5179761,-111.9393701
The Colony,TX,33.0890094,-96.8863922
Binghamton,NY,42.0987125,-75.9125262
Urbandale,IA,41.6274552,-93.7380624
Farmington,NM,36.7291152,-108.205445
Plainfield,IL,41.6086711,-88.2054345
Lombard,IL,41.8864687,-88.0201536
Prescott,AZ,34.5399962,-112.4687616
North Lauderdale,FL,26.217305,-80.2258811
Blacksburg,VA,37.2296566,-80.4136767
Hackensack,NJ,40.8871438,-74.0410865
Sayreville,NJ,40.4635362,-74.3618499
Altamonte Springs,FL,28.6619154,-81.3885899
El Centro,CA,32.792,-115.5630514
Sherman,TX,36.2452294,-101.8858689
Cleveland Heights,OH,41.5200518,-81.556235
Bountiful,UT,40.8894611,-111.8804817
York,PA,39.9624624,-76.727707
Peachtree Corners,GA,33.9701009,-84.2215869
Haltom City,TX,32.7995738,-97.2691817
Spring Hill,TN,35.751179,-86.9300023
Ormond Beach,FL,29.2854132,-81.0557921
Cutler Bay,FL,25.5783,-80.3377
Goose Creek,SC,32.9961038,-80.0387292
Moorhead,MN,46.8739081,-96.7538674
Westfield,IN,40.04792895,-86.16580874
Concord,NH,43.207178,-71.537476
Altoona,PA,40.518681,-78.394736
Rohnert Park,CA,38.3396367,-122.7010984
Fond du Lac,WI,43.7748763,-88.4458033
Brea,CA,33.9170444,-117.888855
Gainesville,GA,34.2978794,-83.8240663
Salem,MA,42.5195292,-70.8967226
Sierra Vista,AZ,31.5545973,-110.2997756
North Miami Beach,FL,25.9331488,-80.1625463
Freeport,NY,40.6576071,-73.5835826
Mankato,MN,44.1634663,-93.9993505
Gallatin,TN,36.3883031,-86.4475898
Lompoc,CA,34.6391501,-120.4579409
DeKalb,IL,41.8903447,-88.7713953
Burlington,VT,44.4761601,-73.212906
San Bruno,CA,37.6261715,-122.4332435
Brentwood,TN,36.0325687,-86.7825235
Jefferson City,MO,38.577359,-92.1724265
Edmonds,WA,47.8105738,-122.3774952
Apache Junction,AZ,33.4150485,-111.549577
Fairfield,OH,39.3458953,-84.5605031
Oakley,CA,37.9974219,-121.7124536
Linden,NJ,40.6220478,-74.2445902
Puyallup,WA,47.1849009,-122.29214
Huntsville,TX,30.7235263,-95.5507771
Urbana,IL,40.1117174,-88.207301
Beverly,MA,42.5584284,-70.8800491
State College,PA,40.7944504,-77.8616386
Pittsfield,MA,42.451302,-73.260018
Schertz,TX,29.5641617,-98.2695702
Bell Gardens,CA,33.9694561,-118.1503953
Oviedo,FL,28.6702526,-81.2084941
Grove City,OH,39.8814519,-83.0929645
Campbell,CA,37.2870626,-121.9448818
Wentzville,MO,38.8244136,-90.8683119
Woonsocket,RI,42.0028761,-71.5147839
La Quinta,CA,33.6654913,-116.2776956
Leominster,MA,42.5267443,-71.7614891
Midland,MI,43.6155825,-84.2472117
Weslaco,TX,26.1594305,-97.9907362
Newnan,GA,33.3806716,-84.7996573
Shakopee,MN,44.7980186,-93.5268986
Brighton,CO,39.983721,-104.8110775
Rancho Palos Verdes,CA,33.7483311,-118.3707683
Pine Bluff,AR,34.2157064,-92.0140402
Coppell,TX,32.9552598,-97.0155703
Bremerton,WA,47.5653663,-122.6246836
Moline,IL,41.5067003,-90.5151342
Delaware,OH,40.2986724,-83.067965
Findlay,OH,41.0413873,-83.6503982
Westfield,MA,42.1390327,-72.7584859
Hickory,NC,35.7333312,-81.3442915
Shelton,CT,41.3164856,-73.0931641
Greenacres,FL,26.623679,-80.1253213
Westerville,OH,40.126139,-82.9295287
Manassas,VA,38.7509488,-77.4752667
Kearny,NJ,40.7684342,-74.1454214
Los Banos,CA,37.0592253,-120.8505342
Spanish Fork,UT,40.1150133,-111.6547774
Belleville,IL,38.5200504,-89.9839935
Maplewood,MN,45.0082216,-93.0456985
Bullhead City,AZ,35.1477774,-114.5682983
Florence,AL,34.79981,-87.677251
Wilkes-Barre,PA,41.2464824,-75.8817316
Hollister,CA,36.8524545,-121.4016021
Bartlett,IL,41.9908485,-88.1850028
Fitchburg,MA,42.5903661,-71.8119837
Cape Girardeau,MO,37.3034933,-89.5230357
Cedar Falls,IA,42.5274123,-92.4453179
Lancaster,OH,39.7136754,-82.5993294
Buffalo Grove,IL,42.1514146,-87.959794
Royal Palm Beach,FL,26.7017553,-80.22338423
Hutchinson,KS,38.0608444,-97.9297743
Marion,IA,41.3144108,-93.1010141
Covington,KY,39.0836224,-84.508371
Columbia,TN,35.6150716,-87.0352831
Friendswood,TX,29.5293998,-95.2010447
Indian Trail,NC,35.0768141,-80.6692352
Woburn,MA,42.4792618,-71.1522766
Holyoke,MA,42.2071434,-72.60765
Hagerstown,MD,39.6419219,-77.7202641
Montclair,CA,34.0775104,-117.6897776
Danville,VA,36.5859718,-79.3950228
Quincy,IL,39.9356016,-91.4098727
San Gabriel,CA,34.0990733,-118.1085682
Hilton Head Island,SC,32.1618488,-80.7512616
Hallandale Beach,FL,25.98584285,-80.14118352
Crystal Lake,IL,42.2411344,-88.3161965
Calexico,CA,32.6790572,-115.498703
Lake Oswego,OR,45.4206749,-122.670649
Romeoville,IL,41.6475306,-88.0895061
Plant City,FL,28.01633,-82.1234803
Keizer,OR,44.9969,-123.0266267
New Berlin,WI,42.976453,-88.1090391
Chelsea,MA,42.3917638,-71.0328284
Sumter,SC,33.9204354,-80.3414693
La Puente,CA,34.01979,-117.9503677
Roy,UT,41.1617999,-112.0261903
Marlborough,MA,42.3459271,-71.5522874
Milton,GA,34.1135408,-84.2695169
Issaquah,WA,47.5348778,-122.0432974
Lancaster,TX,32.5920798,-96.7561083
Streamwood,IL,42.0255827,-88.1784085
Germantown,TN,35.0867577,-89.8100858
Annapolis,MD,38.9786401,-76.492786
Carol Stream,IL,41.9125286,-88.1347927
Culver City,CA,34.0211224,-118.396466
Hobbs,NM,32.707667,-103.1311314
Lynnwood,WA,47.8278656,-122.3053932
Mooresville,NC,35.5848596,-80.8100724
Brookfield,WI,43.0605671,-88.1064787
Olive Branch,MS,34.9617605,-89.8295315
Northglenn,CO,39.9100858,-104.987552
Hot Springs,AR,34.4929465,-93.06551559
Norwich,CT,41.5243537,-72.0759008
Warren,OH,41.237557,-80.818417
Duncanville,TX,32.6518004,-96.9083366
Hurst,TX,32.8234621,-97.1705678
Clermont,FL,28.5494447,-81.7728543
Wheeling,IL,42.138889,-87.9310944
Fort Lee,NJ,40.8509333,-73.9701382
Wausau,WI,44.9596017,-89.6298239
Pacifica,CA,37.6138253,-122.4869194
Florence,SC,34.1984435,-79.7671658
Lake Worth,FL,26.615891,-80.0691435
Longview,WA,46.1377048,-122.9344623
Eagle Mountain,UT,40.3093488,-112.0119825
Reynoldsburg,OH,39.9547861,-82.8121191
Clovis,NM,34.405472,-103.2050709
Tupelo,MS,34.2576067,-88.7033859
Rosenberg,TX,29.5571825,-95.8085623
Martinez,CA,38.0138934,-122.1338674
Pleasant Grove,UT,40.3640349,-111.7386884
Grants Pass,OR,42.4393707,-123.3272489
Dover,DE,39.158168,-75.5243682
Huber Heights,OH,39.85902405,-84.11141952
Stanton,CA,33.79410005,-117.9951006
Menomonee Falls,WI,43.1790768,-88.1170784
Waxahachie,TX,32.3944908,-96.8439365
Holly Springs,NC,35.6512655,-78.8336218
Atlantic City,NJ,39.3642852,-74.4229351
Cottage Grove,MN,44.8277446,-92.9438218
Valley Stream,NY,40.6631362,-73.7056955
Hanover Park,IL,41.9994722,-88.1450735
Spartanburg,SC,34.9498007,-81.9320157
Oregon City,OR,45.3573429,-122.6067583
Winter Springs,FL,28.6987064,-81.3054759
Carpentersville,IL,42.1211364,-88.2578582
Wildomar,CA,33.5939372,-117.2414989
Greenfield,WI,42.9614039,-88.0125865
Braintree Town,MA,42.20453615,-71.01817063
Rock Island,IL,41.4411786,-90.5766144
Muskogee,OK,35.7478769,-95.3696909
West Fargo,ND,46.874967,-96.900362
Mount Juliet,TN,36.200055,-86.5186054
San Juan,TX,26.1892409,-98.1552872
Portage,IN,41.5758708,-87.1761455
Aventura,FL,25.9564812,-80.1392121
Owasso,OK,36.2659698,-95.8548557
Park Ridge,IL,42.0112329,-87.8406031
Beloit,WI,42.5083272,-89.031784
New Albany,IN,38.2856247,-85.8241312
Benton,AR,36.3456186,-94.2670404
Rome,GA,34.257038,-85.1646726
Lima,OH,40.7399785,-84.105006
Muskegon,MI,43.2341813,-86.2483921
Bettendorf,IA,41.5252761,-90.5096386
Dunedin,FL,28.0197404,-82.7717684
Hilliard,OH,40.033814,-83.1596108
Phenix City,AL,32.4709761,-85.0007653
Addison,IL,41.931696,-87.9889556
Lebanon,TN,36.2079779,-86.2910945
West Hollywood,CA,34.0923014,-118.3692894
Roseville,MN,45.0060767,-93.1566107
Tucker,GA,33.85162905,-84.22374317
Moorpark,CA,34.285558,-118.8820414
Richfield,MN,44.8766431,-93.2877877
Meridian,MS,32.3643098,-88.703656
Monrovia,CA,34.1483499,-118.0014517
Kearns metro township,UT,None,None
Oak Creek,WI,42.8858503,-87.8631362
Lincoln Park,MI,42.2505943,-83.1785361
Texarkana,TX,33.44667445,-94.07714831
Claremont,CA,34.0966764,-117.7197785
Oswego,IL,41.6834778,-88.3525714
Post Falls,ID,47.7110106,-116.9480877
Lewiston,ME,44.100351,-70.2147764
Peachtree City,GA,33.3967829,-84.5957629
Lauderdale Lakes,FL,26.1667184,-80.2085565
Richmond,KY,37.7478572,-84.2946539
Bartlesville,OK,36.7494864,-95.9782966
Tooele,UT,40.4062872,-113.1966394
Mount Vernon,WA,48.4200462,-122.32642
Leavenworth,KS,39.345184,-94.921703
Prattville,AL,32.4640245,-86.4596966
Watertown Town,MA,42.3678613,-71.1874398
Calumet City,IL,41.616016,-87.5295837
San Juan Capistrano,CA,33.5016932,-117.6625509
Marion,OH,40.5886259,-83.1287349
Franklin,WI,42.888627,-88.0384195
Temple City,CA,34.1082994,-118.0577568
Cooper City,FL,26.0474608,-80.27384418
Del Rio,TX,29.3655405,-100.894698
El Mirage,AZ,33.6130338,-112.3244866
La Vergne,TN,36.0156178,-86.5819394
Inver Grove Heights,MN,44.8479039,-93.0428119
Monroe,NC,34.9854275,-80.5495112
Bell,CA,33.9747806,-118.1866361
Gahanna,OH,40.0195625,-82.8791363
Riviera Beach,FL,26.784343,-80.0650293
Wildwood,MO,38.5806948,-90.6314374
Upper Arlington,OH,39.9945084,-83.0624078
Richmond,IN,39.8286897,-84.8898521
Plainfield,IN,39.7042123,-86.3994387
Manhattan Beach,CA,33.8915985,-118.3951241
Lufkin,TX,31.3386242,-94.7288558
Gadsden,AL,34.010929,-85.9989596
Georgetown,KY,38.2097967,-84.5588311
La Porte,TX,29.6657838,-95.0193729
Englewood,CO,39.6482059,-104.9879641
Brunswick,OH,41.2456819,-81.8275398
East Point,GA,33.6795531,-84.4393724
DeLand,FL,29.0283213,-81.3031098
Pleasant Hill,CA,37.9479786,-122.0607963
Merrillville,IN,41.4828144,-87.3328139
Stow,OH,41.1596261,-81.4406258
San Luis,AZ,32.4934395,-114.7737551
Cedar City,UT,37.6774238,-113.061827
McMinnville,OR,45.2100367,-123.194463
Leawood,KS,38.966673,-94.6169012
Cookeville,TN,36.1623886,-85.4997057
Menlo Park,CA,37.4519671,-122.1779927
Myrtle Beach,SC,33.6956461,-78.8900409
Panama City,FL,30.1600827,-85.6545729
Sun Prairie,WI,43.1834579,-89.2134359
Pullman,WA,46.7304268,-117.173895
Vestavia Hills,AL,33.4487989,-86.7879492
North Ridgeville,OH,41.3894905,-82.0190321
Socorro,TX,31.654557,-106.3033146
Randolph Town,MA,42.1613358,-71.0429353
Wenatchee,WA,47.4234599,-120.3103494
Norristown,PA,40.121497,-75.3399048
Goshen,IN,41.5824086,-85.834366
Butte-Silver Bow,MT,46.0131505,-112.536508
Goldsboro,NC,35.3848841,-77.9927651
Parkland,FL,26.32540565,-80.27393698
University City,MO,38.6569083,-90.3103443
Midvale,UT,40.6149174,-111.9106607
Franklin Town,MA,42.08853535,-71.40153163
Kennesaw,GA,34.0234337,-84.6154897
Adelanto,CA,34.5827699,-117.409215
Torrington,CT,41.8006523,-73.1212214
University Place,WA,47.2368034,-122.552067
Chester,PA,39.849557,-75.3557458
Douglasville,GA,33.7514966,-84.7477136
Salisbury,NC,35.6709727,-80.4742261
Lake Stevens,WA,48.0197794,-122.0660914
Foster City,CA,37.5600336,-122.2688522
Valparaiso,IN,41.4730948,-87.0611412
Fairborn,OH,39.8208998,-84.0193858
Estero,FL,26.4381474,-81.8067537
Mason,OH,39.3600586,-84.309939
Kearney,NE,40.4906216,-98.9472344
Cottonwood Heights,UT,40.613474,-111.8256464
Beverly Hills,CA,34.0696501,-118.3963062
Seaside,CA,36.62593,-121.8169383
Dalton,GA,34.7691867,-84.9702475
San Dimas,CA,34.085315,-117.8408327
Glendale Heights,IL,41.919522,-88.07663651
Dana Point,CA,33.4669721,-117.6981075
Weatherford,TX,32.7589648,-97.7970748
Midlothian,TX,32.482361,-96.9944489
Newark,DE,39.6775927,-75.7630866
Alabaster,AL,33.2442813,-86.8163773
Deer Park,TX,29.7052284,-95.1238204
Long Beach,NY,40.5885508,-73.6582631
Woodridge,IL,41.7563344,-88.045559
Greer,SC,34.9381361,-82.2272119
Springville,UT,40.1652447,-111.6114726
Saratoga Springs,UT,40.3491173,-111.904656
Hinesville,GA,31.8477298,-81.5960354
Copperas Cove,TX,31.124062,-97.9030785
Holland,MI,42.7876022,-86.1090828
American Fork,UT,40.3768064,-111.7959146
Andover,MN,45.2332985,-93.2913405
Matthews,NC,35.1159532,-80.7224386
Helena,MT,46.5927425,-112.036277
Woodstock,GA,34.1014112,-84.5192192
Florence,KY,38.9989499,-84.6266111
Northbrook,IL,42.128704,-87.8265089
Statesboro,GA,32.4490141,-81.7832912
Salisbury,MD,38.366027,-75.6009964
Walla Walla,WA,46.0667277,-118.3393456
Fair Lawn,NJ,40.9397796,-74.1312504
St. Charles,IL,41.9139808,-88.3128183
Nacogdoches,TX,31.5970503,-94.5927451
Lewiston,ID,46.4195913,-117.0216144
Bay City,MI,43.5944677,-83.8888648
Laramie,WY,41.311367,-105.591101
Houma,LA,29.5957696,-90.7195348
Massillon,OH,40.7965119,-81.5231597
Manitowoc,WI,44.0886059,-87.6575841
Jackson,MI,42.2416466,-84.425589
Harker Heights,TX,31.0746347,-97.6590473
Redmond,OR,44.2726203,-121.1739212
Elk Grove Village,IL,42.0041236,-87.9706457
Kaysville,UT,41.0349847,-111.9383931
Lawndale,CA,33.8885217,-118.3531991
Southlake,TX,32.9412363,-97.1341783
Savage,MN,44.7779041,-93.3356204
Des Moines,WA,47.398829,-122.3099093
Bethel Park,PA,40.3275697,-80.0394977
Dania Beach,FL,26.0524224,-80.143929
Bangor,ME,44.8011821,-68.7778138
Spring Valley,NY,41.1130231,-74.0437839
Dover,NH,43.1981117,-70.8739761
College Park,MD,38.99203005,-76.9461029
El Paso de Robles (Paso Robles),CA,35.6389902,-120.6860902
Rome,NY,43.2128473,-75.4557304
Clearfield,UT,41.1134756,-112.0244382
Liberty,MO,39.246479,-94.419079
Eastpointe,MI,42.4683698,-82.9554746
Pekin,IL,40.5689849,-89.650105
Westlake,OH,41.4553232,-81.9179174
Gillette,WY,44.290635,-105.501876
Alamogordo,NM,32.9046474,-105.941835
Juneau,AK,58.3019496,-134.419734
La Verne,CA,34.1008426,-117.7678355
Garfield,NJ,40.8814882,-74.113198
West Bend,WI,43.4252776,-88.1834277
Rochester,NH,43.3050631,-70.9753629
Bowling Green,OH,41.3747744,-83.6513229
Syracuse,UT,41.0895938,-112.0638903
Shawnee,OK,35.3272928,-96.9253004
Sherwood,AR,34.8150907,-92.2243153
Sahuarita,AZ,31.9575818,-110.955646
Garner,NC,35.7112642,-78.6141709
Miami Lakes,FL,25.91162125,-80.3212748
Petersburg,VA,37.227928,-77.4019268
North Olmsted,OH,41.4156025,-81.9234726
Wheat Ridge,CO,39.766098,-105.0772063
Cleburne,TX,32.3476438,-97.3866837
Cibolo,TX,29.5707831,-98.2330927
Banning,CA,33.9255685,-116.875289
Laguna Hills,CA,33.5948758,-117.6882067
Princeton,NJ,40.34833555,-74.66842306
Naugatuck,CT,41.4860186,-73.0509432
Mundelein,IL,42.263079,-88.0039653
Michigan City,IN,41.7075394,-86.8950297
Kingman,AZ,35.189443,-114.0530065
San Pablo,CA,37.9621457,-122.3455263
Fairbanks,AK,64.8289745,-147.6699169
Goleta,CA,34.4358295,-119.8276389
Opelika,AL,32.6454116,-85.3782795
Algonquin,IL,42.1655801,-88.2942493
Burlingame,CA,37.5841026,-122.366082
Aiken,SC,33.5598586,-81.721952
Nicholasville,KY,37.8806341,-84.5729961
Ithaca,NY,42.4396039,-76.4968019
Lawrenceville,GA,33.9562149,-83.9879625
Winter Park,FL,28.5977707,-81.3510264
Fitchburg,WI,43.0020919,-89.423817
Fountain,CO,38.682219,-104.7008056
Brooklyn Center,MN,45.0748543,-93.3296296
Lafayette,CO,39.9935959,-105.0897058
Hopkinsville,KY,36.8657651,-87.4889532
Morgantown,WV,39.6296809,-79.9559437
Canton,GA,34.2367621,-84.4907621
Poughkeepsie,NY,41.7065539,-73.9283672
Crown Point,IN,41.4169806,-87.3653136
Danville,IL,40.125222,-87.6304614
Windsor,CO,40.4753755,-104.9156269
Gloucester,MA,42.6159286,-70.6619888
Gurnee,IL,42.3702996,-87.9020186
Holladay,UT,40.6688363,-111.8246557
Fuquay-Varina,NC,35.5843849,-78.7998691
Chamblee,GA,33.892176,-84.2988296
LaGrange,GA,33.039291,-85.0313269
Elizabethtown,KY,37.693952,-85.8591285
Cornelius,NC,35.481705,-80.8590006
North Tonawanda,NY,43.0407742,-78.8660527
Long Branch,NJ,40.3042778,-73.9923596
Los Gatos,CA,37.226611,-121.9746797
Galesburg,IL,40.9479779,-90.3705842
Morristown,TN,36.2139814,-83.2948923
San Carlos,CA,37.504936,-122.261823
Saratoga,CA,37.2638324,-122.0230146
Los Altos,CA,37.3790629,-122.116578
Sanford,NC,35.4798757,-79.1802994
Ballwin,MO,38.5936028,-90.5385549
Atascadero,CA,35.4894169,-120.6707255
North Royalton,OH,41.3136644,-81.7245739
New Bern,NC,35.1084931,-77.0441143
Seguin,TX,29.5688411,-97.9647269
Stockbridge,GA,33.5442781,-84.2338093
Rahway,NJ,40.6081591,-74.2776468
Madison Heights,MI,42.4858692,-83.1052028
Carlsbad,NM,32.4257456,-104.2376121
Santa Paula,CA,34.3541659,-119.0592705
Eagle,ID,43.6954424,-116.3540138
Maryville,TN,35.7564719,-83.9704593
Walnut,CA,33.7085883,-117.7926096
Eagle Pass,TX,28.7099337,-100.493813
Suisun City,CA,38.24582825,-121.972234
Texarkana,AR,33.4254259,-94.0430937
Kent,OH,41.1536674,-81.357886
North Chicago,IL,42.325578,-87.8411818
Duluth,GA,34.0028569,-84.1441046
O'Fallon,IL,38.5922715,-89.9112124
Atwater,CA,37.3477174,-120.609084
Highland Park,IL,42.1816919,-87.8003438
Westfield,NJ,40.65286,-74.35026487
Oak Park,MI,42.4595317,-83.1821445
Rexburg,ID,43.8235163,-111.7870222
Central,LA,30.5542266,-91.0367175
Chicago Heights,IL,41.5062834,-87.6357079
East Palo Alto,CA,37.4688273,-122.141075
Parkersburg,WV,39.2699565,-81.5506916
Russellville,AR,35.2784173,-93.1337856
Washington,UT,37.2393471,-113.525776
Port Chester,NY,41.0017643,-73.6656834
Oak Ridge,TN,36.0103562,-84.2696449
Greenville,MS,33.4000633,-91.0551312
Jamestown,NY,42.0965167,-79.2380322
SeaTac,WA,47.4449086,-122.283084
Fredericksburg,VA,38.3031837,-77.4605399
Williston,ND,48.1465457,-103.621814
Raytown,MO,39.0168425,-94.4630468
Paragould,AR,36.0584021,-90.4973286
Ridgecrest,CA,35.6225064,-117.6699414
Southgate,MI,42.2037103,-83.2067556
Harrison,NY,41.0195135,-73.71116375
Niles,IL,42.0289319,-87.8122348
Desert Hot Springs,CA,33.961124,-116.5016784
Bella Vista,AR,36.4678036,-94.2669727
Morrisville,NC,35.83453565,-78.82281296
Greenville,TX,33.1384488,-96.1108066
Casselberry,FL,28.6714702,-81.3382005
Port Huron,MI,42.9815877,-82.440466
Wasco,CA,35.5941238,-119.3409457
Lake in the Hills,IL,42.1816908,-88.3303618
Agawam Town,MA,42.0885286,-72.6260704
Burton,MI,42.9897333,-83.6335032
Schererville,IN,41.4789246,-87.4547605
Independence,KY,38.9431183,-84.544109
West Springfield Town,MA,42.1062862,-72.6200902
New Iberia,LA,30.0035365,-91.8187285
Northampton,MA,42.3178989,-72.6311006
Englewood,NJ,40.8928771,-73.9726381
Enterprise,AL,31.3151708,-85.8552161
Zionsville,IN,39.950724,-86.2616968
Burbank,IL,41.741406,-87.7686078
Aberdeen,SD,45.4649805,-98.487813
Benicia,CA,38.049365,-122.1585777
Jacksonville,AR,34.8662005,-92.1101458
Rockledge,FL,28.3137515,-80.7242189
Saratoga Springs,NY,43.0821793,-73.7853915
Henderson,KY,37.8367513,-87.5907631
Middletown,NY,40.8397222,-73.8316667
Big Spring,TX,32.250398,-101.4787356
Williamsport,PA,41.2493292,-77.0027671
Monterey,CA,36.2231079,-121.3877428
Newburgh,NY,41.5034271,-74.0104179
Converse,TX,29.5180081,-98.3161241
Granite City,IL,38.7014389,-90.1487199
Oxford,MS,34.3663773,-89.5187664
Yukon,OK,35.5067259,-97.7625386
Winchester,VA,39.1852184,-78.1652404
Melrose,MA,42.4564323,-71.064182
Hutto,TX,30.5427638,-97.5468898
Bixby,OK,35.9420431,-95.8833235
Hobart,IN,41.5322592,-87.2550353
Oakdale,MN,44.985624,-92.9645794
Marion,IN,40.5583739,-85.6591442
New Smyrna Beach,FL,29.0294202,-81.02083424
Tualatin,OR,45.3838546,-122.766351
Fridley,MN,45.0838291,-93.2590388
East Chicago,IN,41.6397857,-87.4548466
Kirkwood,MO,38.5800713,-90.4069177
Frankfort,KY,38.2009055,-84.8732836
Ramsey,MN,45.0165728,-93.0949501
Jeffersontown,KY,38.1942356,-85.5644033
Glen Ellyn,IL,41.8775293,-88.0670118
Anderson,SC,34.5068601,-82.6506264
Slidell,LA,30.2751945,-89.7811745
Bridgewater Town,MA,42.028876,-70.95268417
Mint Hill,NC,35.1735388,-80.6570377
Statesville,NC,35.7826363,-80.8872959
Gladstone,MO,39.2039095,-94.5510237
Garfield Heights,OH,41.4169974,-81.6059581
Imperial Beach,CA,32.5839444,-117.1130849
Florence,AZ,33.059919,-111.4303822
Lansing,IL,41.5662245,-87.5381569
Millville,NJ,39.4020593,-75.0393368
Monroeville,PA,40.4211798,-79.7881025
Athens,AL,34.8045487,-86.9711698
Bergenfield,NJ,40.9275987,-73.9973608
Horn Lake,MS,34.9553719,-90.0348139
Carrollton,GA,33.5801103,-85.0766113
Prior Lake,MN,44.7133271,-93.4226873
Forney,TX,32.747893,-96.4719289
Huntley,IL,42.1722503,-88.42692
Lake Jackson,TX,29.0338575,-95.4343859
Maple Valley,WA,47.3664231,-122.0437127
Easton,PA,40.6916081,-75.2099866
Oak Forest,IL,41.6028116,-87.7439384
Glen Cove,NY,40.8641845,-73.6319174
Shoreview,MN,45.0722056,-93.1282878
Windsor,CA,38.5471327,-122.8163802
Dodge City,KS,37.7527982,-100.0170787
Round Lake Beach,IL,42.3716881,-88.0900806
Colleyville,TX,32.8809603,-97.155012
Wilmette,IL,42.0757315,-87.7193768
Plum,PA,40.5003457,-79.7494911
Mount Pleasant,WI,42.7292465,-87.851473
McHenry,IL,42.3294391,-88.4605713
Elmira,NY,42.0897965,-76.8077338
Shaker Heights,OH,41.4739419,-81.5370671
Erie,CO,40.0146297,-105.1039511
Brownsburg,IN,39.8433769,-86.3977736
Chaska,MN,44.7894072,-93.6021791
Bristol,TN,36.5945034,-82.1885212
Maywood,CA,33.9866807,-118.185349
Maryland Heights,MO,38.7150511,-90.435999
Magna metro township,UT,None,None
Xenia,OH,39.6847822,-83.9296526
Belmont,CA,37.5164926,-122.2941914
Allen Park,MI,42.2595071,-83.2107671
Mason City,IA,43.1535728,-93.2010367
New Lenox,IL,41.5119761,-87.9656098
Hanahan,SC,32.9138914,-80.0088359
Daphne,AL,30.6035255,-87.9036047
New London,CT,41.3556187,-72.0997804
West Chicago,IL,41.8847507,-88.2039607
Kiryas Joel,NY,41.3420393,-74.1679241
Lemon Grove,CA,32.7425516,-117.0314172
Lindenhurst,NY,40.6867667,-73.3734547
McDonough,GA,33.4473361,-84.1468616
West Linn,OR,45.3656761,-122.6123141
Lemoore,CA,36.3006495,-119.7827122
Alvin,TX,29.4238472,-95.2441009
Eureka,CA,40.7906871,-124.1673746
Marshalltown,IA,42.0442545,-92.9123388
Thomasville,NC,35.8831786,-80.081817
Temple Terrace,FL,28.0352964,-82.3892596
Lafayette,CA,37.8857582,-122.1180201
Norco,CA,33.9323307,-117.5508901
Winona,MN,43.9582272,-91.7807784
Galt,CA,38.2546373,-121.2999485
Vernon Hills,IL,42.2204892,-87.9803604
Pearl,MS,32.2735792,-90.127881
Bessemer,AL,33.4017766,-86.954437
Wheeling,WV,40.0642004,-80.72177295
Batavia,IL,41.8500284,-88.3125738
Garden City,KS,37.9716898,-100.8726618
Garden City,MI,42.3255929,-83.3310422
Wooster,OH,40.7980976,-81.9397733
Chanhassen,MN,44.8618403,-93.5307207
Fremont,NE,41.4338363,-96.4960449
Cabot,AR,34.974532,-92.0165336
Neenah,WI,44.1858193,-88.462609
Troy,OH,40.0394982,-84.2032767
Hercules,CA,38.0171441,-122.2885808
Woodburn,OR,45.143731,-122.8553725
Paramus,NJ,40.9452911,-74.0735899
Brawley,CA,33.018515,-115.5159425
Alton,IL,38.8908583,-90.1843091
Auburn,NY,42.9320202,-76.5672029
Cliffside Park,NJ,40.8214894,-73.9876388
Sebastian,FL,27.816415,-80.4706078
Northport,AL,33.2292976,-87.5771286
Twentynine Palms,CA,34.1356915,-116.0543506
East St. Louis,IL,38.6244952,-90.1509429
Sachse,TX,32.9762327,-96.5952703
Kankakee,IL,41.1253903,-87.848682
Haines City,FL,28.126625,-81.63869766
Soledad,CA,36.426921,-121.3271861
Superior,WI,46.66546425,-92.10105352
Conway,SC,33.8360035,-79.0478143
Medina,OH,41.1383878,-81.8637474
Barberton,OH,41.012833,-81.6051221
Asheboro,NC,35.7079146,-79.8136446
Mercer Island,WA,47.5602073,-122.2201423
Stevens Point,WI,44.5229223,-89.574111
Lebanon,PA,40.3429683,-76.4233816
White Bear Lake,MN,45.0838098,-93.0069304
Green,OH,40.9468077,-81.4670631
Owatonna,MN,44.0839937,-93.2261076
Moscow,ID,46.7323875,-117.0001651
Decatur,GA,33.7737582,-84.296069
Pooler,GA,32.1158983,-81.2495131
Madison,MS,32.4618086,-90.1153638
Reedley,CA,36.5963395,-119.4504029
Starkville,MS,33.4503998,-88.8183872
Laurel,MD,39.1044123,-76.8669233
Lockport,IL,41.5894753,-88.057837
Franklin,IN,39.4806056,-86.0549863
South Salt Lake,UT,40.7074741,-111.8882709
Tarpon Springs,FL,28.14808295,-82.7438016
Bluffton,SC,32.2084605,-80.9408403
Forest Grove,OR,45.5197452,-123.1114405
South Portland,ME,43.6414716,-70.2408811
Denison,TX,33.7556593,-96.536658
El Cerrito,CA,33.8410146,-117.5207978
Mauldin,SC,34.77873,-82.310119
Homewood,AL,33.4717732,-86.8008228
Farmington,UT,40.9804423,-111.8874688
Sanger,CA,36.708006,-119.5559652
South Pasadena,CA,34.1133062,-118.1478291
Kingsville,TX,27.5158689,-97.856109
Salem,VA,37.293378,-80.054667
Bainbridge Island,WA,47.6475683,-122.5460292
Caledonia,WI,42.8077958,-87.924248
Crestview,FL,30.7621326,-86.5705084
Champlin,MN,45.1888539,-93.3974538
Woodstock,IL,42.3147529,-88.4474302
Austin,MN,43.6680928,-92.9744896
Edwardsville,IL,38.8114364,-89.953157
Palm Springs,FL,26.6359009,-80.0961538
Elk River,MN,45.3038538,-93.5671825
Rosemount,MN,44.7391873,-93.12611
Fountain Hills,AZ,33.6117105,-111.7173613
Zanesville,OH,39.9403453,-82.0131924
Belvidere,IL,42.2579991,-88.841734
Riverside,OH,39.7793976,-84.1246358
Muskego,WI,42.905848,-88.1389779
Hazelwood,MO,38.7761446,-90.3715909
Clinton,IA,41.9054695,-90.5599971
Carbondale,IL,37.7274692,-89.216655
Ridgewood,NJ,40.9796683,-74.1194403
Balch Springs,TX,32.7287413,-96.6227714
University Park,TX,32.851034,-96.79257966
De Pere,WI,44.4493584,-88.0599986
Derby,KS,37.5455735,-97.2689331
Staunton,VA,38.1495947,-79.072557
Wilsonville,OR,45.3099218,-122.7681602
Clayton,NC,35.650711,-78.4563914
Riverbank,CA,37.7360396,-120.9354895
Walker,MI,43.005597,-85.7741906
Paducah,KY,37.0833893,-88.6000478
Wyandotte,MI,42.200409,-83.1506436
Grandview,MO,38.8898478,-94.5313816
Paris,TX,33.6617962,-95.555513
Watertown,NY,43.9747838,-75.9107565
Selma,CA,36.5707838,-119.6120765
Ossining,NY,41.1609095,-73.87816188
Mount Pleasant,MI,43.597646,-84.7668495
Hazleton,PA,40.9646867,-75.9852789
South Elgin,IL,41.9941938,-88.2922996
Auburn Hills,MI,42.6875323,-83.2341028
Burlington,IA,40.8075391,-91.1129234
Melrose Park,IL,41.900299,-87.8569745
Ardmore,OK,34.1742611,-97.1436254
Hastings,NE,40.5861322,-98.3898883
Marysville,OH,40.2364486,-83.3671432
Norton Shores,MI,43.1689044,-86.2639461
Kernersville,NC,36.1198589,-80.0736533
Sugar Hill,GA,34.1064895,-84.0335197
Herndon,VA,38.9695316,-77.3859479
Emporia,KS,38.4040054,-96.181623
Prosper,TX,33.2385763,-96.7866058
Kalispell,MT,48.202158,-114.315321
Sandusky,OH,41.4561002,-82.7115813
Rockville Centre,NY,40.6574186,-73.6450664
Athens,OH,39.3289242,-82.1012479
Palmetto Bay,FL,25.6217715,-80.3247748
Avon Lake,OH,41.510033,-82.0185895
Lathrop,CA,37.8227046,-121.27661
Loma Linda,CA,34.075626,-117.2520478
Watauga,TX,32.8579056,-97.2547371
Homer Glen,IL,41.6000318,-87.9381112
Dinuba,CA,36.5432837,-119.3870656
Norfolk,NE,42.0283379,-97.4169964
Westmont,IL,41.7950525,-87.9751964
Clinton,MS,32.3410552,-90.3215983
Camas,WA,45.5911103,-122.4122248
Brookings,SD,44.30025455,-96.78595151
Harvey,IL,41.6100344,-87.6467132
Trotwood,OH,39.7972788,-84.3113334
West Memphis,AR,35.1464797,-90.1845388
Collinsville,IL,38.6703267,-89.9845476
Mequon,WI,43.2219088,-87.9822969
Ottumwa,IA,41.0200145,-92.4112963
Lodi,NJ,40.8823215,-74.0831971
Newport,RI,41.5524614,-71.27037833
San Fernando,CA,34.28497,-118.437652
Saginaw,TX,32.8601275,-97.3639068
Peekskill,NY,41.289811,-73.9204922
Brandon,MS,32.2731475,-89.9868058
Inkster,MI,42.2942045,-83.3099303
West Melbourne,FL,28.06929805,-80.65476623
San Benito,TX,26.1326237,-97.630791
Simpsonville,SC,34.7370639,-82.2542834
Bridgeton,NJ,39.427337,-75.2340768
Key West,FL,24.5625566,-81.7724368
Ridgeland,MS,32.4284761,-90.1323087
Elmwood Park,IL,41.9205931,-87.8160169
Waukee,IA,41.6118485,-93.8845129
Moses Lake,WA,47.1301417,-119.2780771
South Plainfield,NJ,40.5792701,-74.4115401
Wadsworth,OH,41.0256101,-81.7298519
Tumwater,WA,47.0080655,-122.910368
Fairfax,VA,38.8462236,-77.3063733
Venice,FL,27.0999188,-82.4543597
Edgewater,FL,28.9888754,-80.9022758
Barstow,CA,34.8957684,-117.0172077
Pelham,AL,33.285669,-86.8099884
Corsicana,TX,32.091299,-96.4646821
Faribault,MN,43.6647961,-93.9510501
Seal Beach,CA,33.7423967,-118.1055926
Fort Dodge,IA,42.4974694,-94.1680158
Newberg,OR,45.300347,-122.972751
Calabasas,CA,34.1446643,-118.6440973
North Augusta,SC,33.52085,-81.96696923
Farragut,TN,35.8845238,-84.1535261
Freeport,IL,42.2966861,-89.6212271
Jenks,OK,36.0228734,-95.9683278
Kerrville,TX,30.0474688,-99.1400207
Coronado,CA,32.6915199,-117.1766947
Centerville,OH,39.6283928,-84.1593818
Van Buren,AR,35.5759086,-92.4916144
Leesburg,FL,28.810823,-81.8778582
Ponca City,OK,36.703647,-97.081898
Searcy,AR,35.9018987,-92.7098744
Belton,MO,38.8108097,-94.5313502
North Platte,NE,41.1238873,-100.7654232
Muscatine,IA,41.4776121,-91.1210053
Jacksonville Beach,FL,30.2946859,-81.3931396
Oakdale,CA,37.7665947,-120.8471545
Columbus,MS,33.4956744,-88.4272627
Romulus,MI,42.2222614,-83.3965995
Cudahy,CA,33.9620584,-118.1835395
Oak Harbor,WA,48.2931559,-122.6432245
Leland,NC,34.2203056,-78.0335992
Rolling Meadows,IL,42.0841936,-88.0131275
Benbrook,TX,32.673188,-97.4605759
Zion,IL,42.4461322,-87.8328505
Roseburg,OR,43.216505,-123.3417381
Watertown,WI,43.1948481,-88.7286352
Hialeah Gardens,FL,25.8650961,-80.3244958
Columbus,NE,41.4292988,-97.3581439
Auburn,ME,44.0978509,-70.2311655
Carteret,NJ,40.596106,-74.237292
Greenwood,SC,34.1921466,-82.16142445
Avon,OH,41.4516512,-82.0350598
Loves Park,IL,42.3200189,-89.0581621
Lisle,IL,41.801159,-88.0747687
Greenbelt,MD,38.9933654,-76.88333238
Maywood,IL,41.8789942,-87.8436412
Dickinson,ND,46.8791756,-102.7896242
Oxford,OH,39.5103048,-84.7420519
Kenmore,WA,47.7573202,-122.2440148
Farmington,MN,44.6402434,-93.1435497
Greenfield,IN,39.7855096,-85.7681979
Willoughby,OH,41.6397696,-81.4065011
Mustang,OK,35.384227,-97.7244813
Radcliff,KY,37.8403456,-85.9491298
Middletown,DE,39.4496857,-75.7166811
Blue Island,IL,41.6572753,-87.6801848
Crystal,MN,45.031823,-93.3606072
Hastings,MN,44.7426933,-92.8518697
Belton,TX,31.0560132,-97.464453
Marshall,TX,32.5447756,-94.3661004
Laguna Beach,CA,33.5426975,-117.785366
Webster Groves,MO,38.592339,-90.3564329
Acworth,GA,34.0659329,-84.6768796
Griffin,GA,33.2467807,-84.2640904
Morton Grove,IL,42.0405857,-87.7825696
Kingston,NY,41.9287812,-74.0023702
Keene,NH,42.933597,-72.2784264
Marina,CA,36.6900986,-121.8006293
Solon,OH,41.3897764,-81.4412259
New Brighton,MN,45.0628999,-93.2060969
Mandan,ND,46.826415,-100.889704
Fairhope,AL,30.5231647,-87.9028458
Machesney Park,IL,42.3472406,-89.0389956
Rock Springs,WY,41.5860557,-109.2194544
Trussville,AL,33.6196266,-86.6084342
Waynesboro,VA,38.0686668,-78.8893999
Pottstown,PA,40.2452976,-75.6496424
Johnston,IA,41.6731523,-93.6973395
Happy Valley,OR,45.428679,-122.497174
East Peoria,IL,40.666149,-89.5800978
Hopewell,VA,37.3043154,-77.2872001
Patterson,CA,37.471623,-121.1296949
Fort Walton Beach,FL,30.4057552,-86.618842
Nixa,MO,37.0439358,-93.3098534
Clinton,UT,41.1396708,-112.0505108
Munster,IN,41.5644798,-87.5125412
Christiansburg,VA,37.1298517,-80.4089389
Roselle,IL,41.9849897,-88.0797182
Garden City,NY,40.7266477,-73.6343052
Union City,GA,33.5870558,-84.5424299
Millbrae,CA,37.598958,-122.4009419
Dolton,IL,41.6389236,-87.607268
Duncan,OK,34.5023029,-97.9578129
Highland,IN,41.5536529,-87.4520484
Prairie Village,KS,38.9914109,-94.6332768
Coralville,IA,41.6764044,-91.5804475
Fort Mill,SC,35.0073697,-80.9450759
Kuna,ID,43.4918307,-116.420122
Hudson,OH,41.240056,-81.440667
South Lake Tahoe,CA,38.9332411,-119.9843482
Raymore,MO,38.810131,-94.4676501
Watertown,SD,44.899211,-97.115289
Pickerington,OH,39.8962773,-82.7731905
Lexington,SC,33.9804494,-81.2374167
Lino Lakes,MN,45.1602442,-93.0888324
Shelbyville,TN,35.483406,-86.4602717
Corinth,TX,33.1540091,-97.0647322
Naples,FL,26.1421976,-81.7942944
Maple Heights,OH,41.4153313,-81.565956
Gardner,KS,38.8109254,-94.9272958
Corcoran,CA,36.098007,-119.5604015
Portsmouth,NH,43.0702223,-70.7548621
Port Hueneme,CA,34.1477558,-119.1951559
Summit,NJ,40.7182356,-74.3592296
Secaucus,NJ,40.7899291,-74.0566735
Golden Valley,MN,44.9861176,-93.3784618
Ruston,LA,32.5232053,-92.637927
Arvin,CA,35.209129,-118.828431
Roselle,NJ,40.6503925,-74.26088333
Geneva,IL,41.8875281,-88.3053525
Sunny Isles Beach,FL,25.9426915,-80.1218486
Bloomingdale,IL,41.9575285,-88.0809036
Yucca Valley,CA,34.1236205,-116.4139839
Cartersville,GA,34.1650972,-84.7999383
Klamath Falls,OR,42.224867,-121.7816704
Katy,TX,29.7857853,-95.8243956
Chillicothe,OH,39.3331197,-82.9824019
Del City,OK,35.442007,-97.4408709
Albertville,AL,34.2675937,-86.2088669
Pascagoula,MS,30.3646795,-88.5585995
Vicksburg,MS,32.3528055,-90.8777342
Sedalia,MO,38.7098314,-93.2295515
Darien,IL,41.7508713,-87.9739593
Perrysburg,OH,41.5571178,-83.6279321
New Castle,PA,40.9999202,-80.3471856
Hamtramck,MI,42.3928151,-83.0496438
La Porte,IN,41.6105983,-86.7225227
Clarksville,IN,38.2967791,-85.7602087
Biddeford,ME,43.4925843,-70.4533844
Gallup,NM,35.5283506,-108.743907
Villa Park,IL,41.8891319,-87.9774854
Junction City,KS,39.0286093,-96.8313978
Fernley,NV,39.6048048,-119.2404748
Alliance,OH,40.9153362,-81.1059309
Mukilteo,WA,47.9474034,-122.3036992
Hammond,LA,30.5043583,-90.4611995
Prichard,AL,30.7387998,-88.0788889
Birmingham,MI,42.5467012,-83.2113192
Easley,SC,34.8269276,-82.5817053
Mountlake Terrace,WA,47.7909667,-122.3066395
Piqua,OH,40.1447732,-84.2424449
DeBary,FL,28.8830604,-81.3088385
Eustis,FL,28.85181715,-81.71085534
South Euclid,OH,41.5231076,-81.5184553
South Holland,IL,41.6008681,-87.6069894
North Plainfield,NJ,40.6301025,-74.4273743
Anniston,AL,33.6624824,-85.8283224
Ashland,OR,42.1972487,-122.7153995
Sapulpa,OK,36.0005035,-96.1049612
Duarte,CA,34.1394513,-117.9772873
Battle Ground,WA,45.7813532,-122.5337433
Stephenville,TX,32.2191836,-98.2130634
Oxford,AL,33.583652,-85.94245223
Sanford,ME,43.438878,-70.7739832
Park Forest,IL,41.4825788,-87.6802344
Evans,CO,40.3763701,-104.6921874
Carrboro,NC,35.9099875,-79.0752876
East Ridge,TN,35.0142412,-85.2519003
Covington,WA,47.3657791,-122.100222
Bonney Lake,WA,47.1870191,-122.1702293
Chambersburg,PA,39.9405903,-77.6598624
Dickinson,TX,29.4607876,-95.0513173
Ellensburg,WA,46.9970635,-120.5451223
Arnold,MO,38.4226711,-90.3758287
Pleasant Prairie,WI,42.5269718,-87.8544568
Marquette,MI,46.4481521,-87.6305899
Sweetwater,FL,25.7634334,-80.3731086
Milwaukie,OR,45.4440051,-122.6412523
Bryant,AR,34.5959265,-92.4890469
North Salt Lake,UT,40.8485564,-111.906882
Forest Lake,MN,45.279106,-92.9851629
New Hope,MN,45.0347176,-93.3861037
Suwanee,GA,34.0514898,-84.0712997
Mill Creek,WA,47.8577455,-122.2210628
Universal City,TX,29.5480071,-98.2911235
Clemmons,NC,36.0215258,-80.3819984
Louisville,CO,39.977763,-105.1319296
Golden,CO,39.7546349,-105.2205809
Hays,KS,38.8791783,-99.3267702
Northfield,MN,44.4582041,-93.161159
Oroville,CA,39.5137752,-121.556359
Grayslake,IL,42.3433518,-88.0412192
Palisades Park,NJ,40.8481556,-73.997639
Dixon,CA,38.4454641,-121.8232958
South Milwaukee,WI,42.9105722,-87.8606367
Gardner,MA,42.5823564,-71.9831716
Lebanon,OH,39.4353373,-84.2029922
East Moline,IL,41.5155176,-90.4411683
Yorkville,IL,41.6411409,-88.4472948
Adrian,MI,41.8975152,-84.0373054
North Ogden,UT,41.3071354,-111.9601986
South El Monte,CA,34.0519548,-118.0467339
Ferguson,MO,38.744707,-90.3038975
Lynn Haven,FL,30.2454776,-85.648261
Arlington,WA,48.1810957,-122.1389548
Murphy,TX,33.0151208,-96.6130478
Lumberton,NC,34.6183433,-79.0083993
Ozark,MO,36.6467816,-92.4575198
American Canyon,CA,38.1749179,-122.2608044
Papillion,NE,41.1544433,-96.0422378
Elko,NV,41.1958128,-115.3272864
Sidney,OH,40.2842164,-84.1554987
Rolla,MO,37.9509324,-91.7708076
Columbia Heights,MN,45.0460458,-93.2517802
Warrensburg,MO,38.7624373,-93.7409596
Shafter,CA,35.5005139,-119.2717761
Foley,AL,30.4065868,-87.6835974
Crest Hill,IL,41.554753,-88.0986709
Punta Gorda,FL,26.9297836,-82.0453664
Ennis,TX,32.3293111,-96.6252679
Tukwila,WA,47.4627356,-122.2559156
Lomita,CA,33.8036545,-118.3195014
Lockport,NY,43.28243305,-78.7076489
Payson,UT,40.0443989,-111.7321518
Mountain Brook,AL,33.481719,-86.74500121
Glassboro,NJ,39.7027677,-75.1119434
Ashland,OH,40.8686147,-82.3175942
Port Angeles,WA,48.118146,-123.4307413
Agoura Hills,CA,34.14791,-118.7657042
Libertyville,IL,42.2830786,-87.9531303
Howard,WI,44.5433912,-88.0880213
Ypsilanti,MI,42.2410562,-83.613055
Mokena,IL,41.5261437,-87.8892189
Portsmouth,OH,38.7316375,-82.9965441
Pleasantville,NJ,39.3898388,-74.5240422
Bartow,FL,27.8963791,-81.8431567
Ashland,KY,38.4784144,-82.6379387
Miamisburg,OH,39.6428362,-84.2866083
Plainview,TX,34.1847936,-101.7068417
Belle Glade,FL,26.6845104,-80.6675577
Charleston,IL,39.4961458,-88.1761521
Germantown,WI,43.5258118,-90.221516
Nogales,AZ,31.3402134,-110.9360818
Snellville,GA,33.857328,-84.0199108
Sulphur,LA,30.2365943,-93.3773783
Harrison,NJ,40.7464901,-74.1562551
South St. Paul,MN,44.8938832,-93.0368359
Oregon,OH,41.6436603,-83.4868768
Pittsburg,KS,37.4108841,-94.70496
Kinston,NC,35.2626635,-77.5816353
Middleton,WI,43.0962919,-89.5119565
Ferndale,MI,42.4605917,-83.1346478
West Chester,PA,39.9597213,-75.6059638
Shelby,NC,35.2852619,-81.53798614
Forest Park,GA,33.6220542,-84.3690918
La Caada Flintridge,CA,34.1998302,-118.2005236
Rocky River,OH,41.4756031,-81.8393034
Elmwood Park,NJ,40.9074237,-74.1183543
El Reno,OK,35.532198,-97.9550578
Saco,ME,43.5009176,-70.4428286
West St. Paul,MN,44.9101545,-93.0802073
Seymour,IN,38.9592201,-85.8902547
Orinda,CA,37.8771476,-122.1796888
Helena,AL,33.296224,-86.8436004
Alamo,TX,26.1836854,-98.1230638
Sand Springs,OK,36.1394339,-96.1100025
Painesville,OH,41.7244885,-81.245657
Sherwood,OR,45.3569315,-122.8403744
Lake Zurich,IL,42.1969689,-88.0934108
Willmar,MN,45.1219492,-95.0435373
Havelock,NC,34.8785,-76.9014457
Parma Heights,OH,41.3900518,-81.7595769
Montrose,CO,38.4375391,-108.2403855
Monroe,WA,47.8552259,-121.971335
Norwood,OH,39.1556149,-84.4596641
Mesquite,NV,36.8035642,-114.0671413
West Mifflin,PA,40.3634026,-79.8664375
Albany,CA,37.88687,-122.2977475
Blythe,CA,33.6134767,-114.5937537
Boone,NC,36.2165362,-81.6746158
Horizon City,TX,31.6926121,-106.207479
Montgomery,IL,39.2052633,-89.5057126
Stillwater,MN,45.0564041,-92.8134982
Eloy,AZ,32.7551703,-111.5534932
Brigham City,UT,41.5103717,-112.0155619
Murrysville,PA,40.4284015,-79.697545
Central Falls,RI,41.8906553,-71.3922785
Tullahoma,TN,35.3620235,-86.2094342
Baldwin,PA,40.3381252,-79.9789405
Monroe,MI,41.9153358,-83.5135665
Plattsburgh,NY,44.69282,-73.45562
South Burlington,VT,44.4669941,-73.1709604
North Liberty,IA,41.748868,-91.5972564
Bourbonnais,IL,41.1639309,-87.8839693
Lynbrook,NY,40.6548253,-73.6717969
Matteson,IL,41.509832,-87.739267
Lake Forest,IL,42.2586342,-87.840625
Angleton,TX,29.16941,-95.4318847
Shelbyville,IN,39.5214373,-85.7769238
Frankfort,IL,41.4958665,-87.8486613
Murray,KY,36.6103334,-88.314761
Hermosa Beach,CA,33.86428,-118.39591
Sylvania,OH,41.7189392,-83.7129935
Cumberland,MD,39.6526498,-78.762383
Morristown,NJ,40.7970382,-74.4809868
Pinole,CA,38.0043667,-122.2988587
Erlanger,KY,39.0167275,-84.6007773
Altoona,IA,41.6437308,-93.4696031
Bethany,OK,35.5186728,-97.6322648
Mineola,NY,40.7492678,-73.6406845
Carlisle,PA,40.201499,-77.1890783
Johnstown,PA,40.3267407,-78.9219698
Highland,UT,40.4207683,-111.7927335
Liberal,KS,37.0430812,-100.920999
Pinecrest,FL,25.6670476,-80.3081074
Evergreen Park,IL,41.720136,-87.7013258
Mamaroneck,NY,40.9544317,-73.7361239
Farmington,MO,37.7803037,-90.4226371
Broadview Heights,OH,41.3139426,-81.6851271
Hurricane,UT,37.1750272,-113.289888
Westbrook,ME,43.6763036,-70.3663874
Fox Crossing,WI,44.2234752,-88.4700616
McKeesport,PA,40.3478472,-79.864215
Durango,CO,37.2395367,-107.8215818
Bellaire,TX,29.7057858,-95.4588299
Troy,AL,31.8087678,-85.969951
Onalaska,WI,43.8830606,-91.2343539
Lexington,NC,35.8240265,-80.2533838
Springboro,OH,39.5522815,-84.2332718
Sartell,MN,45.6216319,-94.2069365
Whitehall,OH,39.9667308,-82.8854559
Culpeper,VA,38.4733823,-77.9961275
Terrell,TX,30.1990738,-102.0974881
Newton,KS,38.0469166,-97.3447244
Twinsburg,OH,41.3125552,-81.4401129
Central Point,OR,42.376782,-122.912721
Seminole,FL,28.7225829,-81.2353683
St. John,IN,41.4500356,-87.4700381
Point Pleasant,NJ,40.0831714,-74.0681931
Hawthorne,NJ,40.9492649,-74.1537549
Claremore,OK,36.3126005,-95.6160686
Alsip,IL,41.6689223,-87.7386619
Avon,IN,39.76201,-86.39295386
Milledgeville,GA,33.0801429,-83.2320991
Homewood,IL,41.5573283,-87.6654739
Augusta,ME,44.310545,-69.7792759
Alice,TX,27.7522487,-98.0697249
Durant,OK,33.9919761,-96.3776762
Bellwood,IL,41.8814197,-87.883117
Cortland,NY,41.2486935,-73.90858593
Ansonia,CT,41.3429922,-73.0787468
Deerfield,IL,42.1711365,-87.8445119
Westminster,MD,39.5752639,-76.9959277
Creve Coeur,MO,38.6613007,-90.4423653
Madisonville,KY,37.3280037,-87.4986989
Berea,OH,41.3661614,-81.8543026
Cocoa,FL,28.3553873,-80.7318827
Jacksonville,IL,39.7343037,-90.2288356
Forest Park,OH,39.2903353,-84.5041108
St. Marys,GA,30.7305142,-81.5464928
Winchester,KY,37.990079,-84.1796503
Winthrop Town,MA,42.375897,-70.9888105
Rancho Mirage,CA,33.770859,-116.426874
Thomasville,GA,30.8365815,-83.9787808
Gautier,MS,30.385755,-88.6116855
Mayfield Heights,OH,41.5192189,-81.457896
Marshfield,WI,44.6688524,-90.1717987
Hopkins,MN,44.9271194,-93.4074945
Brownwood,TX,31.7070026,-98.9831022
Arcata,CA,40.866517,-124.08284
Fairmont,WV,39.4850848,-80.1425781
Brook Park,OH,41.3983838,-81.8045788
Altus,OK,34.6381255,-99.3339754
Laurel,MS,31.6940509,-89.1306124
Sycamore,IL,41.9889173,-88.6867538
Brookfield,IL,41.8228378,-87.848085
Chowchilla,CA,37.094309,-120.1561626
Rutherford,NJ,40.826489,-74.1068091
Newburyport,MA,42.8125913,-70.8772751
Weirton,WV,40.4189566,-80.5895167
Radford,VA,37.1292934,-80.5357895
Boerne,TX,29.7946641,-98.7319703
Hyattsville,MD,38.9529442,-76.9408647
St. Michael,MN,45.210202,-93.6648083
Maumelle,AR,34.856613,-92.4056858
Niles,OH,41.1828353,-80.765358
Trenton,MI,42.1406552,-83.1800544
Imperial,CA,33.0305487,-115.3595666
Orange,TX,30.1228634,-93.9041169
Otsego,MN,45.2812733,-93.614857
Alton,TX,26.2871257,-98.3137779
St. Matthews,KY,38.24988,-85.63574236
Cudahy,WI,42.959738,-87.861471
Round Lake,IL,42.353355,-88.0934145
Manchester,MO,38.5925305,-90.5107453
Cary,IL,42.2119684,-88.2381381
Ottawa,IL,41.3516628,-88.845436
North Aurora,IL,41.8061399,-88.3272952
Bensenville,IL,41.9538384,-87.9431781
Eastlake,OH,41.6490337,-81.4378991
Ashtabula,OH,41.865054,-80.789809
Safety Harbor,FL,27.9908529,-82.6931553
West Columbia,SC,33.9934867,-81.0739826
Fayetteville,GA,33.4487257,-84.4549262
Sunland Park,NM,31.796496,-106.579989
Arroyo Grande,CA,35.1185869,-120.590725
Kingsland,GA,30.7999563,-81.6898261
Kingsland,GA,30.7999563,-81.6898261
Marco Island,FL,25.9363356,-81.7156832
Sheridan,WY,44.7800215,-106.9508107
Winder,GA,33.9919085,-83.7184368
Canby,OR,45.2629088,-122.6925983
Lenoir,NC,35.9140196,-81.5389849
Perry,GA,32.4586695,-83.7319658
Menasha,WI,44.2022293,-88.4465361
Scarsdale,NY,40.9880495,-73.7974133
Brenham,TX,30.1668828,-96.3977442
Ocean Springs,MS,30.4112904,-88.8279165
White Settlement,TX,32.7595737,-97.4583538
Knightdale,NC,35.7878975,-78.4822938
McAlester,OK,34.9334981,-95.7697934
Moraga,CA,37.834897,-122.12883
Hermiston,OR,45.8404101,-119.2894605
Amsterdam,NY,40.782832,-73.978328
Steubenville,OH,40.3697905,-80.6339638
Elizabeth City,NC,36.2956836,-76.2247697
Tavares,FL,28.8041579,-81.725632
Centralia,WA,46.7204489,-122.9614303
Palestine,TX,31.7621153,-95.6307891
Dover,NJ,40.883988,-74.5621025
Takoma Park,MD,38.9778882,-77.0074765
Lackawanna,NY,41.417964,-75.7065335
Albert Lea,MN,43.6480127,-93.3682656
Madison,NJ,40.7598227,-74.417097
Maitland,FL,28.6274723,-81.3656392
El Dorado,AR,33.20763,-92.6662674
Gretna,LA,29.9146493,-90.0539604
Hinsdale,IL,41.8024604,-87.9299841
Santa Fe Springs,CA,33.9480787,-118.0691499
Franklin Park,IL,41.9353084,-87.865618
Mattoon,IL,39.4842821,-88.3773279
Wisconsin Rapids,WI,44.3917589,-89.8228767
Kirksville,MO,40.1948848,-92.5833939
Centerville,UT,40.9180005,-111.8721601
Logansport,IN,40.7545006,-86.3567356
Tiffin,OH,41.114485,-83.1779537
Anoka,MN,45.2710195,-93.2827625
Bay City,TX,28.9827565,-95.969402
Amesbury Town,MA,42.8533154,-70.94052572
Anacortes,WA,48.5020123,-122.6237356
Marion,IL,38.6477381,-88.9232112
Tallmadge,OH,41.1014616,-81.4417989
Dumont,NJ,40.9406541,-73.9968051
Greenfield,CA,36.3207998,-121.243813
Shorewood,IL,41.5200305,-88.2017293
Vero Beach,FL,27.6387163,-80.3975399
Clemson,SC,34.6850749,-82.8364111
Natchitoches,LA,31.7606732,-93.0860209
Lake Mary,FL,28.756618,-81.33888382
Manassas Park,VA,38.7840035,-77.4697111
Martinsburg,WV,39.4562528,-77.9639604
Tinton Falls,NJ,40.2890734,-74.0927967
South Houston,TX,29.663008,-95.2354902
Lebanon,OR,44.5365467,-122.9068762
Macomb,IL,40.4588934,-90.6713939
New Philadelphia,OH,40.4897871,-81.4456706
Godfrey,IL,38.9556031,-90.1867765
Taylor,TX,32.2793121,-99.8812612
Nederland,TX,29.9743803,-93.9923965
Colonial Heights,VA,37.2555718,-77.4112016
Stafford,TX,29.6160671,-95.5577221
Hannibal,MO,39.7082498,-91.3587413
La Marque,TX,29.3685674,-94.9713134
Lemont,IL,41.6737149,-88.0016263
Springfield,TN,36.5092119,-86.8849984
Calhoun,GA,34.502587,-84.9510542
Portland,TX,27.8818828,-97.3188666
Lindenwold,NJ,39.81812,-74.97996222
Greenfield Town,MA,42.5940799,-72.59687367
Clive,IA,41.6096559,-93.7754644
Oswego,NY,43.4112973,-76.1279841
Ada,OK,34.7743383,-96.6783651
Selma,AL,32.4078632,-87.0207473
South Ogden,UT,41.1918934,-111.9713429
Coalinga,CA,36.139678,-120.3601496
North Canton,OH,40.875891,-81.4023356
La Vista,NE,41.1832679,-96.0324044
Ashwaubenon,WI,44.4752606,-88.060735
Waxhaw,NC,34.9248125,-80.7440174
Massapequa Park,NY,40.6803785,-73.4551241
Huntington,IN,40.8831011,-85.497476
Sevierville,TN,35.8667112,-83.5620518
Ammon,ID,43.4750675,-111.9648016
New Castle,IN,39.9289351,-85.3702477
Siloam Springs,AR,36.1881365,-94.5404962
Lansdale,PA,40.2414952,-75.2837862
Heber,UT,40.5043831,-111.4141589
Pampa,TX,35.536297,-100.9601552
Palos Hills,IL,41.6966397,-87.816924
Oconomowoc,WI,43.1116731,-88.4992659
Dallas,OR,44.9189206,-123.3158695
Phoenixville,PA,40.1303822,-75.5149128
East Cleveland,OH,41.5331066,-81.5790137
Republic,MO,37.1202149,-93.4807001
Poplar Bluff,MO,36.7568327,-90.3957115
Buda,TX,30.082475,-97.8417144
Gainesville,TX,33.6259414,-97.1333453
Southbridge Town,MA,42.074741,-72.02689426
Norwalk,OH,41.2424219,-82.6155745
Lake St. Louis,MO,38.77710155,-90.80858275
Vincennes,IN,38.6772691,-87.5286325
Seagoville,TX,32.6447916,-96.5418608
Tifton,GA,31.4522765,-83.5096866
North Myrtle Beach,SC,33.8278405,-78.6800323
Tahlequah,OK,35.91537,-94.969956
Wayne,MI,42.2682408,-83.2844172
Goodlettsville,TN,36.3349115,-86.70533913
Sunnyside,WA,46.3246419,-120.0081898
Pendleton,OR,45.672075,-118.7885967
Ham Lake,MN,45.2502429,-93.2499508
Danville,KY,37.6456488,-84.7721823
Mount Vernon,OH,40.3933956,-82.4857181
Fairburn,GA,33.5670562,-84.5810418
Bristol,VA,36.5959685,-82.1885009
Lake Wales,FL,27.9014133,-81.5859099
Aberdeen,WA,46.975371,-123.815722
Clayton,MO,38.6504352,-90.3362473
New Port Richey,FL,28.2441768,-82.7192671
Truckee,CA,39.327962,-120.1832533
Caon City,CO,38.4423644,-105.2224947
Cohoes,NY,42.7742446,-73.7001187
Easton,MD,38.7744952,-76.0763065
Highland Village,TX,33.091788,-97.0466759
Auburndale,FL,28.0652975,-81.7886906
Defiance,OH,41.2844933,-84.3557802
Pinehurst,NC,35.1946235,-79.4679317
El Segundo,CA,33.917028,-118.4156337
Mercedes,TX,26.1497977,-97.9136112
Artesia,CA,33.8690197,-118.0796195
Norcross,GA,33.9412127,-84.2135309
Shelbyville,KY,38.2120144,-85.2235666
Laconia,NH,43.5278546,-71.470351
Morganton,NC,35.7454291,-81.6870837
Harrisburg,NC,35.3258295,-80.6454979
Waterville,ME,44.5520105,-69.6317121
Somerton,AZ,32.5964404,-114.709677
Menomonie,WI,44.8755183,-91.9193422
Washington,IL,38.3662806,-89.4201902
Live Oak,TX,28.2678746,-98.101923
Vienna,VA,38.9013729,-77.2651762
Country Club Hills,IL,41.5680898,-87.7203257
Streetsboro,OH,41.239223,-81.345941
Crowley,TX,32.5782835,-97.3609829
Zephyrhills,FL,28.24262955,-82.18125318
Buffalo,MN,45.1719084,-93.8746941
Chickasha,OK,35.052565,-97.9364326
New Milford,NJ,40.9350986,-74.0190281
Groveland,FL,28.5602149,-81.8561226
Beaver Dam,WI,43.4577692,-88.837329
Hernando,MS,34.8239518,-89.9937018
Ripon,CA,37.741595,-121.124382
Coos Bay,OR,43.3678937,-124.2174647
Bluffdale,UT,40.4896712,-111.9388244
Hazel Park,MI,42.4620142,-83.1035688
Aurora,OH,41.317555,-81.345386
Donna,TX,26.1702082,-98.0522376
Red Wing,MN,44.5624676,-92.5338013
Dyersburg,TN,36.0346393,-89.3857496
Fairview Heights,IL,38.5889386,-89.990382
Celina,TX,33.3238976,-96.785342
Morton,IL,40.6127349,-89.459323
Kaukauna,WI,44.2780432,-88.2720503
Addison,TX,32.96047785,-96.83006731
Fort Thomas,KY,39.0786242,-84.4483432
Mebane,NC,36.0966835,-79.27085472
Mount Holly,NC,35.2976298,-81.0161686
Brunswick,GA,31.1499528,-81.4914894
Conyers,GA,33.6676103,-84.0176904
Albemarle,NC,35.3501426,-80.2000578
Centerton,AR,36.3652679,-94.2886875
Stuart,FL,27.197983,-80.2519175
Sulphur Springs,TX,33.1384886,-95.6010143
Boulder City,NV,35.9787638,-114.8337739
Douglas,AZ,31.3471741,-109.5383567
Troutdale,OR,45.5317928,-122.391155
Firestone,CO,40.1124839,-104.936643
Mount Clemens,MI,42.5972563,-82.8779754
Fairview Park,OH,41.4461727,-81.8526519
Stallings,NC,35.1083615,-80.66355902
Crawfordsville,IN,40.0401991,-86.8990249
Westchester,IL,41.8505866,-87.8820048
Center Point,AL,33.6456583,-86.6836001
West Haven,UT,41.2049578,-112.0488985
Washougal,WA,45.5819594,-122.3479921
Bridgeview,IL,41.7500323,-87.8042216
Lebanon,IN,40.0483744,-86.4691677
Los Lunas,NM,34.8142093,-106.7613067
Griffith,IN,41.534507,-87.4255305
Villa Rica,GA,33.732052,-84.9191081
Cullman,AL,34.1335332,-86.8779268
River Falls,WI,44.8595111,-92.6265897
Berea,KY,37.568694,-84.2963224
Long Beach,MS,30.3504751,-89.1528176
Sikeston,MO,36.876719,-89.5878579
Lady Lake,FL,28.9174855,-81.9228604
Aberdeen,MD,39.5120347,-76.1643289
Indianola,IA,41.3604966,-93.5613292
Uvalde,TX,29.300357,-99.7733181
Ukiah,CA,39.1501662,-123.2077861
Lakeway,TX,30.3644888,-97.9875325
Mount Pleasant,TX,33.1570582,-94.9694007
Dyer,IN,41.4942021,-87.5217068
Niceville,FL,30.5168639,-86.482172
Canyon,TX,34.9799429,-101.919197
Bellevue,WI,44.463888,-87.9543025
Beckley,WV,37.7781702,-81.1881557
New Haven,IN,41.0733059,-85.0173125
Fremont,OH,41.3473413,-83.1134972
Opelousas,LA,30.5335302,-92.081509
Millbrook,AL,32.4798575,-86.3619163
Opa-locka,FL,25.89673385,-80.25949641
Prospect Heights,IL,42.0953049,-87.9375694
Frankfort,IN,40.2797657,-86.5108244
Pataskala,OH,39.9955726,-82.6742373
Dublin,GA,32.5404447,-82.903754
Fillmore,CA,34.3985613,-118.9125093
Grandville,MI,42.909598,-85.7630956
Hibbing,MN,47.427155,-92.937689
Laguna Woods,CA,33.6106076,-117.7249722
Hope Mills,NC,34.9704419,-78.9453056
Floral Park,NY,40.7246999,-73.7048024
Easthampton Town,MA,42.270527,-72.672203
Humble,TX,29.9988312,-95.2621553
Payson,AZ,34.2406479,-111.3230261
South River,NJ,40.446495,-74.3859831
The Dalles,OR,45.6015056,-121.1841587
Powder Springs,GA,33.8595492,-84.683824
Traverse City,MI,44.7606441,-85.6165301
Greenwood Village,CO,39.6172101,-104.950814
Jasper,IN,38.3914228,-86.9308719
Hanover,PA,39.8063247,-76.9842735
Rye,NY,40.9808209,-73.684294
Shively,KY,38.2000701,-85.8227413
North Arlington,NJ,40.788434,-74.1331988
Mitchell,SD,43.70953,-98.025379
Graham,NC,36.0690258,-79.4005756
Elkton,MD,39.6065073,-75.8330934
Parlier,CA,36.6116174,-119.5270734
Fate,TX,32.9488451,-96.38535187
Riverdale,GA,33.5726113,-84.4132594
Chubbuck,ID,42.92765095,-112.4731501
West University Place,TX,29.7180075,-95.4338292
Dickson,TN,36.0766534,-87.3870096
Longwood,FL,28.7012172,-81.3461738
Overland,MO,38.7011626,-90.3623381
Buford,GA,34.1206564,-84.0043513
McFarland,CA,35.6780104,-119.2292748
Groves,TX,29.9482695,-93.9171155
Hermitage,PA,41.2333897,-80.44868
Talladega,AL,33.3967079,-86.1597137
Hartford,WI,43.3177776,-88.378857
Holly Springs,GA,34.1739857,-84.5013187
Bemidji,MN,47.4785418,-94.8907869
Hayden,ID,47.7590638,-116.7866807
Middleburg Heights,OH,41.3614401,-81.812912
La Palma,CA,33.846404,-118.0467306
St. Augustine,FL,29.8946952,-81.3145395
Pacific Grove,CA,36.6211149,-121.9177944
Asbury Park,NJ,40.2203907,-74.0120817
Berkley,MI,42.5030909,-83.1835389
Westbury,NY,40.7556561,-73.5876273
Grosse Pointe Woods,MI,42.4435616,-82.9069508
Hueytown,AL,33.458103,-86.95233276
La Grange,IL,41.8054577,-87.8748644
Bradley,IL,41.1421905,-87.8613221
Wilkinsburg,PA,40.44546215,-79.87491323
Kerman,CA,36.7235543,-120.059914
Front Royal,VA,38.9178538,-78.1917718
Clearlake,CA,38.9582307,-122.626372
Hugo,MN,45.159967,-92.9932734
Clarksburg,WV,39.2806451,-80.3445341
Lynden,WA,48.9466041,-122.4569315
Mineral Wells,TX,32.8084605,-98.1128223
Johnstown,CO,40.36544125,-104.9483435
Bay Village,OH,41.484996,-81.9208434
Newton,IA,41.6996927,-93.0537592
Weston,WI,44.640009,-90.61875602
College Park,GA,33.6534427,-84.4493725
Grovetown,GA,33.4504157,-82.1981764
Warsaw,IN,41.2381017,-85.8530544
Dixon,IL,41.8425197,-89.4814291
Americus,GA,32.0723862,-84.2326876
West Park,FL,25.98414895,-80.20246373
Jamestown,ND,46.910544,-98.708436
West Richland,WA,46.3003915,-119.3473121
Rutland,VT,43.6063341,-72.9802745
Oldsmar,FL,28.04350425,-82.67564742
Morris,IL,41.3574135,-88.4215234
Kenmore,NY,42.961748,-78.870914
Depew,NY,42.9022047,-78.6956723
Susanville,CA,40.4162842,-120.6530063
Laurinburg,NC,34.7740495,-79.4628248
Anna,TX,33.34928,-96.54938
Vandalia,OH,39.8906122,-84.1988308
Great Bend,KS,38.3625063,-98.7804087
Williamsburg,VA,37.2708788,-76.7074042
Beech Grove,IN,39.7221906,-86.0894158
Beech Grove,IN,39.7221906,-86.0894158
Newport,KY,39.0889469,-84.4919524
Henderson,NC,36.3295905,-78.3991638
Ferndale,WA,48.8466698,-122.589723
Livingston,CA,37.3868826,-120.723532
Whitewater,WI,42.8336422,-88.7292679
Clarksdale,MS,34.2006479,-90.5702071
Greeneville,TN,36.1631575,-82.8309861
Eden,NC,36.4884715,-79.7667026
Franklin Park,PA,40.5834009,-80.0878352
Ramsey,NJ,41.0573188,-74.1409771
Kilgore,TX,32.3860733,-94.8758518
Salem Lakes,WI,42.5443642,-88.1088522
Jackson,MO,39.03540865,-94.35835358
Mount Washington,KY,38.0500627,-85.5457877
Jacksonville,TX,31.963778,-95.2705042
Grimes,IA,41.6883214,-93.7910575
Lebanon,MO,37.6806669,-92.6637835
Gloversville,NY,43.0508945,-74.3452991
Carthage,MO,37.1765141,-94.3103412
Tonawanda,NY,43.020679,-78.878383
Mount Vernon,IL,38.3172715,-88.9031201
Calera,AL,33.1035045,-86.7505733
Youngsville,LA,30.0996471,-91.9901206
Royse City,TX,32.9761045,-96.331334
Worthington,OH,40.0930945,-83.0179593
Yankton,SD,42.8950275,-97.39717622
Southern Pines,NC,35.1740471,-79.3922539
Saraland,AL,30.820742,-88.0705556
Paradise Valley,AZ,33.5428006,-111.9556001
Pewaukee,WI,43.0805651,-88.2612045
Hereford,TX,34.8245521,-102.398778
Falls Church,VA,38.882334,-77.1710914
Natchez,MS,31.5604076,-91.403171
Port Orchard,WA,47.5315625,-122.6384056
Jennings,MO,38.719184,-90.2611199
Muscle Shoals,AL,34.7451786,-87.6686733
Mountain Home,ID,43.1329504,-115.691197
Scottsbluff,NE,41.862302,-103.6627088
Metuchen,NJ,40.5431598,-74.3632049
Red Bluff,CA,40.1784279,-122.235923
Grain Valley,MO,39.0187651,-94.1976452
Mount Dora,FL,28.81874675,-81.64585724
Rio Grande City,TX,26.3827771,-98.8205251
Sterling,CO,40.6255415,-103.207709
Glasgow,KY,36.995906,-85.9124842
Fraser,MI,42.539202,-82.9493652
Corinth,MS,34.9343599,-88.5223353
Hartselle,AL,34.4435937,-86.9347899
Sterling,IL,41.788642,-89.6962194
Tenafly,NJ,40.9253766,-73.9629154
Owosso,MI,42.9975968,-84.1720541
Scottsboro,AL,34.6731323,-86.0338765
Thibodaux,LA,29.7957633,-90.822871
Robbinsdale,MN,45.0313156,-93.3395843
Batavia,NY,42.9980144,-78.1875515
Chippewa Falls,WI,44.9369054,-91.3929348
Midlothian,IL,41.6253116,-87.7175491
Roanoke Rapids,NC,36.4610756,-77.6548026
Alexander City,AL,32.944012,-85.9538532
Ozark,AL,31.4584764,-85.6405865
Glens Falls,NY,43.309941,-73.644447
Mill Valley,CA,37.9060368,-122.5449763
Destin,FL,30.3935337,-86.4957834
Lewisville,NC,36.0970819,-80.4192216
East Wenatchee,WA,47.4156824,-120.2931263
Lindenhurst,IL,42.4105765,-88.0261911
Phillipsburg,NJ,40.6937099,-75.1901761
Moultrie,GA,31.179998,-83.7887928
Covington,GA,33.5967815,-83.8601827
California City,CA,35.125801,-117.9859038
Auburn,CA,38.8945939,-121.0739897
Fairview,NJ,40.8126006,-73.999028
Hopatcong,NJ,40.9332051,-74.6600975
Hidalgo,TX,26.3530256,-98.216445
Gardendale,AL,33.6601033,-86.8127702
Antioch,IL,42.4767131,-88.0950691
Johnson City,NY,42.1157038,-75.9587873
Hawaiian Gardens,CA,33.8284787,-118.0743137
Hendersonville,NC,35.3187279,-82.4609528
Norridge,IL,41.9633641,-87.827284
Seabrook,TX,29.5633199,-95.019723
Sauk Rapids,MN,45.5913275,-94.1673802
Greendale,WI,42.9405711,-87.9959191
Lockhart,TX,29.8832105,-97.6736292
New Franklin,OH,40.9526931,-81.565937
Chelsea,AL,33.3467195,-86.63644825
Pineville,LA,31.3224044,-92.4343035
Greensburg,PA,40.3014581,-79.5389289
Andrews,TX,32.2690953,-102.6042447
Willowick,OH,41.633103,-81.468727
Hudson,WI,44.9751273,-92.7556281
Washington Court House,OH,39.5364511,-83.4390843
Chesterton,IN,41.6105938,-87.0641992
Washington,MO,37.9559513,-90.879099
King City,CA,36.2127439,-121.126028
Fort Payne,AL,34.4442547,-85.7196893
Callaway,FL,30.1529791,-85.5699252
Waunakee,WI,43.1919373,-89.4556749
Circleville,OH,39.600618,-82.9460133
Wixom,MI,42.5247729,-83.5363339
Pell City,AL,33.5862149,-86.2860888
Bay St. Louis,MS,30.3132453,-89.3343223
Athens,TN,35.4428864,-84.5930113
Havre de Grace,MD,39.5491329,-76.095817
Monroe,OH,39.4432691,-84.363365
D'Iberville,MS,30.45843165,-88.89766223
Cayce,SC,33.9657091,-81.0739827
Reidsville,NC,36.3548586,-79.6644748
Hutchinson,MN,44.8877401,-94.3697057
Dallas,GA,33.9237141,-84.8407732
Beacon,NY,41.504879,-73.9696822
Frederick,CO,40.0991506,-104.937199
North Mankato,MN,44.1732916,-94.0338055
Glenpool,OK,35.92959495,-96.01601566
Hammonton,NJ,39.6365056,-74.8023853
Chicago Ridge,IL,41.7014217,-87.7792196
Miami Springs,FL,25.8223198,-80.289495
Fulshear,TX,29.690292,-95.8996261
Oneonta,NY,42.453492,-75.0629531
Allouez,WI,44.4774269,-88.0163556
Princeton,TX,33.1801161,-96.4980424
Collingswood,NJ,39.9181686,-75.071284
Cahokia,IL,38.5713356,-90.1876115
Deming,NM,32.2627416,-107.7581979
Atlantic Beach,FL,30.3344077,-81.398696
Pierre,SD,44.3683644,-100.351136
Manor,TX,30.3420882,-97.555905
Ephrata,PA,40.1799111,-76.1789242
Richmond Hill,GA,31.9382381,-81.3035515
Dumas,TX,35.8583842,-101.972857
Monticello,MN,45.3053901,-93.7939996
Alexandria,MN,45.8835101,-95.3745015
Forrest City,AR,35.0081474,-90.7898342
Bloomsburg,PA,41.0044958,-76.4537302
Fergus Falls,MN,46.283015,-96.077558
Whitefish Bay,WI,43.1133445,-87.9000856
Bexley,OH,39.9692378,-82.936864
McMinnville,TN,35.683404,-85.7699816
Palmetto,FL,27.5214269,-82.5723193
Harper Woods,MI,42.4333367,-82.9238847
St. Helens,OR,45.8640034,-122.8064922
Highland Park,NJ,40.4959379,-74.4243178
Hickory Hills,IL,41.7255879,-87.825055
Forest Park,IL,41.8794989,-87.8136997
Beach Park,IL,42.4222435,-87.8572955
Sharonville,OH,39.2681145,-84.4132779
Middlesex,NJ,40.596106,-74.237292
Monroe,GA,33.7948364,-83.713229
Maumee,OH,41.5628294,-83.6538244
Lebanon,NH,43.643032,-72.251587
Snoqualmie,WA,47.5289527,-121.8270932
Soddy-Daisy,TN,35.2359025,-85.1907904
Moberly,MO,39.4201137,-92.4364298
La Grande,OR,45.3246068,-118.0878695
Vadnais Heights,MN,45.0574659,-93.0738306
Wood Dale,IL,41.9633625,-87.9789562
Brecksville,OH,41.3197763,-81.6267904
New Providence,NJ,40.6984348,-74.4015405
Roselle Park,NJ,40.6645469,-74.2643133
Shiloh,IL,38.5614383,-89.8973233
Hazel Crest,IL,41.571713,-87.6945746
Greenwood,MS,33.5162315,-90.1795281
Lincoln,IL,40.1481349,-89.3636569
Elizabethton,TN,36.3487196,-82.2106876
Canton,IL,40.5580945,-90.0351167
Lake Forest Park,WA,47.7567679,-122.2809623
Wauconda,IL,42.2589122,-88.1392474
Levelland,TX,33.5873164,-102.37796
Avenal,CA,36.0041223,-120.1290272
Rogers,MN,45.1888596,-93.5524563
Marshall,MN,48.3605336,-96.381968
Auburn,IN,41.3669902,-85.0588632
Waycross,GA,31.2135511,-82.3540178
Fruita,CO,39.1588697,-108.728988
Pottsville,PA,40.6851324,-76.1953701
Red Oak,TX,32.5117104,-96.80836333
Lindsay,CA,36.2030064,-119.08816
Grover Beach,CA,35.1209452,-120.621837
Blytheville,AR,35.9272953,-89.9189754
Santa Fe,TX,29.3780129,-95.1057625
Olean,NY,42.0774779,-78.4298613
Beaufort,SC,32.4315813,-80.6698286
Englewood,OH,39.8775553,-84.3021673
Brainerd,MN,46.3580221,-94.2008288
Washington,PA,40.17396,-80.2461714
Jasper,AL,33.8312185,-87.2775053
Sault Ste. Marie,MI,46.490586,-84.359269
Andover,KS,37.7139041,-97.1364294
Whitehall,PA,40.65747805,-75.50746465
Carpinteria,CA,34.3988838,-119.5184564
Huron,SD,44.36308,-98.214388
Glenn Heights,TX,32.54390135,-96.8552975
Powell,OH,40.1578403,-83.0751869
Lyndhurst,OH,41.520052,-81.488732
Edgewater,NJ,40.8270448,-73.975694
Western Springs,IL,41.8096132,-87.900671
Marietta,OH,39.4167742,-81.4548392
Azle,TX,32.8975875,-97.5437799
Swansea,IL,38.5339392,-89.9889936
Swansea,IL,38.5339392,-89.9889936
Dardenne Prairie,MO,38.7694969,-90.7290157
Mounds View,MN,45.1068949,-93.2075931
Rochester,MI,42.680588,-83.1338214
Solana Beach,CA,32.9905597,-117.269131
Richton Park,IL,41.484479,-87.7033787
Palos Verdes Estates,CA,33.7872386,-118.401813
Woodinville,WA,47.7545827,-122.1588902
Bardstown,KY,37.8092279,-85.4669025
Bellefontaine,OH,40.3611643,-83.7596557
Channahon,IL,41.4294753,-88.2286735
Port Royal,SC,32.3790843,-80.6926069
Verona,WI,44.1490554,-89.1439725
Fostoria,OH,41.156998,-83.4168702
Clayton,OH,39.8631101,-84.3605022
Steamboat Springs,CO,40.4848003,-106.8317359
Bedford,IN,38.8611619,-86.4872149
New Ulm,MN,44.3140261,-94.4614177
Baker,LA,30.5882429,-91.168163
Cedar Lake,IN,41.3647578,-87.4411473
La Grange Park,IL,41.8333646,-87.8677324
Newton,NC,35.6630887,-81.2219363
Warrenville,IL,41.8179303,-88.174097
Fernandina Beach,FL,30.65229715,-81.43778365
Indiana,PA,40.6214551,-79.1525349
Henderson,TX,32.182598,-95.7893178
Loveland,OH,39.2676804,-84.2746038
Shorewood,WI,43.0883957,-87.8881302
Trenton,OH,39.4808905,-84.4577222
Coolidge,AZ,32.977839,-111.517624
North Palm Beach,FL,26.8237944,-80.0559266
Stoughton,WI,42.9167389,-89.2178997
Streator,IL,41.1210234,-88.8357361
Warrensville Heights,OH,41.43535,-81.514824
Plover,WI,44.4205309,-89.55762109
Worthington,MN,43.6205056,-95.5956434
Miami,OK,36.8746177,-94.877374
Superior,CO,39.9527634,-105.1685977
Lone Tree,CO,39.5365415,-104.888506
Harrison,AR,36.2297936,-93.1076765
South Daytona,FL,29.1658158,-81.0044995
Riverdale,IL,41.6333678,-87.6331021
Lumberton,TX,30.2655322,-94.1991444
Coatesville,PA,39.9831616,-75.8238355
Moody,AL,33.5909365,-86.4908168
McPherson,KS,38.3659015,-97.6575171
Davidson,NC,35.4992614,-80.8485218
Edgewood,WA,47.2318245,-122.2843724
Suamico,WI,44.632044,-88.039342
San Marino,CA,34.1215947,-118.1057394
Portland,TN,36.5817089,-86.5163833
McComb,MS,31.2437872,-90.4531536
Tehachapi,CA,35.1321878,-118.4489739
Chatham,IL,39.676163,-89.7045439
Forest Hill,TX,32.6720778,-97.2691812
Smithfield,NC,35.5085531,-78.33936
Braselton,GA,34.1092735,-83.7626729
Dunmore,PA,41.41765965,-75.6114516
El Dorado,KS,37.81724,-96.8622524
Sharon,PA,41.2331116,-80.4934035
Claremont,NH,43.377105,-72.347031
Half Moon Bay,CA,37.4635519,-122.428586
New Carrollton,MD,38.9698329,-76.8799727
Oakland,NJ,41.028011,-74.24227176
Las Vegas,NM,35.5939325,-105.2238969
Ridgefield Park,NJ,40.8570442,-74.0215285
Irondale,AL,33.52977935,-86.6891278
Butler,PA,40.86108,-79.895197
Loganville,GA,33.8389977,-83.9007382
Santaquin,UT,39.971452,-111.777887
West Carrollton,OH,39.6722812,-84.2521632
Glen Carbon,IL,38.7483814,-89.983158
Key Biscayne,FL,25.6968351,-80.1635261
Marshall,MO,39.1230777,-93.1968704
Federal Heights,CO,39.8591279,-105.015631
Cornelius,OR,45.5198001,-123.0556202
Troy,MO,38.9794923,-90.9806954
Grass Valley,CA,39.2190607,-121.06292
Kingston,PA,41.2659635,-75.8876598
Lilburn,GA,33.8901036,-84.1429719
South Sioux City,NE,42.4737805,-96.4135909
University Heights,OH,41.497831,-81.537346
Connersville,IN,39.6411589,-85.1410748
Beeville,TX,28.4008319,-97.7483312
Glendale,WI,43.1352881,-87.9356423
Gulf Shores,AL,30.2711224,-87.6893826
Wilton Manors,FL,26.1603626,-80.138934
Athens,TX,32.2044416,-95.854914
Wickliffe,OH,41.605327,-81.453449
North Adams,MA,42.6990321,-73.1118964
Dover,OH,40.5213381,-81.4741475
Broussard,LA,30.1471506,-91.9612413
Herrin,IL,37.8031056,-89.0275744
Choctaw,OK,35.4975654,-97.2689263
Manvel,TX,29.4664706,-95.355714
Commerce,CA,34.002581,-118.156586
Meadville,PA,41.641445,-80.151449
Port Neches,TX,29.9913244,-93.9585067
Orangeburg,SC,33.4918203,-80.8556476
Lakeland,TN,35.2306435,-89.7403606
White House,TN,36.4688705,-86.6653338
Clarkston,GA,33.8095487,-84.2396434
Geneva,NY,42.881841,-76.941586
St. Ann,MO,38.72814435,-90.38790816
Greenville,OH,40.1023909,-84.6332986
Gaffney,SC,35.0717945,-81.6498195
Justice,IL,41.7456772,-87.8391876
Fulton,MO,38.8467082,-91.9479586
Minneola,FL,28.5744441,-81.7461873
Crowley,LA,30.2140928,-92.3745761
Grand Terrace,CA,34.0339031,-117.313654
Panama City Beach,FL,30.1765914,-85.805386
Lantana,FL,26.5865308,-80.052166
Woodland Park,NJ,40.8893288,-74.1969657
Richmond,TX,29.5821811,-95.7607832
Mountain Home,AR,36.3361391,-92.3801187
Belmont,NC,35.2438272,-81.0377322
Martinsville,VA,36.6915262,-79.8725386
Jacksonville,AL,33.8137163,-85.7613476
Endicott,NY,42.098408,-76.0493684
Conneaut,OH,41.9440977,-80.5561011
Washington,IN,38.6592152,-87.172789
Cheney,WA,47.4892246,-117.579304
Palos Heights,IL,41.6681632,-87.7962812
Effingham,IL,39.0520902,-88.6029006
North St. Paul,MN,45.0122571,-92.9922512
Rantoul,IL,40.3083672,-88.1558785
Irmo,SC,34.08846885,-81.18021121
Marysville,CA,39.1457247,-121.5913516
San Anselmo,CA,37.9744323,-122.561503
Mandeville,LA,30.3582305,-90.0657477
Woodhaven,MI,42.1370519,-83.2451066
Bedford,OH,41.39311,-81.536509
Trophy Club,TX,33.00467745,-97.20559893
Shepherdsville,KY,37.9885936,-85.7158246
Fort Atkinson,WI,42.9288944,-88.8370509
Kelso,WA,46.1421249,-122.9052993
Borger,TX,35.6678204,-101.3973876
Gatesville,TX,31.4351645,-97.743911
Boone,IA,42.0171798,-93.9254114
Chino Valley,AZ,34.78357,-112.4303597
Blue Ash,OH,39.2320073,-84.3782817
Waconia,MN,44.8507957,-93.7869088
Lewisburg,TN,35.4492404,-86.7888887
Wilmington,OH,39.4453393,-83.8285375
Harrison,WI,45.477459,-89.506796
Holly Hill,FL,29.2435916,-81.0375555
Artesia,NM,32.8423345,-104.4032963
Lake City,FL,30.1894252,-82.6394803
New Baltimore,MI,42.6811436,-82.7368616
Gulfport,FL,27.7483613,-82.7034334
Derby,CT,41.3223611,-73.0890324
Kewanee,IL,41.2455927,-89.9248303
Orange City,FL,28.9488761,-81.2986741
Gladstone,OR,45.3803261,-122.5945507
Patchogue,NY,40.7656539,-73.0151084
Winnetka,IL,42.1080703,-87.7365286
Markham,IL,41.5936453,-87.6947699
Marion,AR,36.2378521,-92.6999559
Leon Valley,TX,29.4952307,-98.6186317
West Plains,MO,36.7281652,-91.8525756
New Kensington,PA,40.5697893,-79.7647705
Newcastle,WA,47.5395736,-122.1563331
Beatrice,NE,40.266429,-96.747369
Poquoson,VA,37.1219885,-76.3965772
Clayton,CA,37.9410341,-121.9357925
Cambridge,MD,38.5714624,-76.0763177
St. Marys,PA,41.4280432,-78.5611275
Fortuna,CA,40.597407,-124.156034
Larkspur,CA,37.9340915,-122.5352539
Ottawa,KS,39.1273653,-97.6568094
Cottonwood,AZ,34.739489,-112.009793
Lincolnwood,IL,42.0055985,-87.735572
Elon,NC,36.1029132,-79.5066895
Palmer Town,MA,42.1862038,-72.3469824
West Monroe,LA,32.5184775,-92.1476353
Amherst,OH,41.3978217,-82.2223775
Grenada,MS,33.7690049,-89.8084192
Coldwater,MI,41.9403263,-85.0005215
Centralia,IL,38.5250491,-89.1334037
Ringwood,NJ,41.113429,-74.2454254
Speedway,IN,39.8022653,-86.2672127
Enumclaw,WA,47.2047793,-121.9916371
Baraboo,WI,43.4704014,-89.7437844
Northlake,IL,41.9172526,-87.8956185
Escanaba,MI,45.7455707,-87.0647434
Eatontown,NJ,40.2962222,-74.0509725
Freeport,TX,28.9541368,-95.3596617
Webb City,MO,37.1435741,-94.4634702
Woodward,OK,36.4336481,-99.3903862
Melissa,TX,33.2862455,-96.5722411
James Island,SC,32.7276779,-79.9556455
Kingsburg,CA,36.5138398,-119.5538929
Canton,MS,32.612602,-90.0367512
Platteville,WI,42.7342942,-90.4784451
Emeryville,CA,37.8314089,-122.2865266
Bainbridge,GA,30.9038252,-84.5754768
Little Chute,WI,44.2799872,-88.3184394
Sedro-Woolley,WA,48.5049158,-122.23494
Grantsville,UT,40.6000817,-112.4635316
Somerville,NJ,40.5742696,-74.60988
Neosho,MO,36.8665201,-94.3701651
South Charleston,WV,38.3495005,-81.69073742
Haverstraw,NY,41.1976502,-73.9640541
Leeds,AL,33.5439212,-86.5427551
Abbeville,LA,29.9746502,-92.1342921
East Bethel,MN,45.3194095,-93.2024487
Festus,MO,38.2207112,-90.3959504
Blackfoot,ID,43.190039,-112.348357
Sylacauga,AL,33.1731716,-86.2516406
Jefferson,GA,34.1170537,-83.5723876
Riverview,MI,42.1742073,-83.1793697
Smithfield,UT,41.838429,-111.8328045
Weatherford,OK,35.5261633,-98.7075744
Cloquet,MN,46.7217279,-92.4613669
Spring Lake,NC,35.1679396,-78.9728056
Macedonia,OH,41.313667,-81.50845
Jerome,ID,42.702266,-114.2867043
Babylon,NY,40.6956552,-73.3256753
Hasbrouck Heights,NJ,40.8579293,-74.0816693
Union,MO,38.4444071,-91.0044454
Moncks Corner,SC,33.1973235,-80.01094796
Garden City,ID,43.622111,-116.238178
Somersworth,NH,43.2625585,-70.8645872
Norton,OH,41.0292217,-81.6381795
Red Bank,NJ,40.3470543,-74.0643065
East Grand Rapids,MI,42.9412024,-85.6097309
St. Peter,MN,44.3238384,-93.9585295
Lansing,KS,39.248739,-94.900246
Brookhaven,MS,31.5790667,-90.4407122
Winfield,KS,37.2397486,-96.9955919
Norwalk,IA,41.4755492,-93.6788876
Robinson,TX,31.4676687,-97.1147226
Port Washington,WI,43.3872247,-87.875644
South Miami,FL,25.7076017,-80.2933846
Harrison,OH,39.25611035,-84.79149017
Greensburg,IN,39.3372722,-85.483581
Vineyard,UT,40.31512555,-111.7539509
Madison,IN,38.7358933,-85.3799577
Port Lavaca,TX,28.6149968,-96.6260892
Richfield,WI,44.5545475,-90.13904506
Clawson,MI,42.5333682,-83.1463166
Healdsburg,CA,38.6106812,-122.870138
Lake Station,IN,41.5750369,-87.2389246
Minden,LA,32.6154278,-93.2868354
Red Bank,TN,35.1167484,-85.2925214
Brown Deer,WI,43.1744352,-87.972722
Crestwood,MO,38.558816,-90.37577772
South Lyon,MI,42.451377,-83.659179
Malibu,CA,34.035591,-118.689423
Smyrna,DE,39.2998339,-75.6046494
Newman,CA,37.3139487,-121.0204222
Crossville,TN,35.949684,-85.0274835
Tomball,TX,30.0971621,-95.6160549
Florida City,FL,25.4480101,-80.479102
Bucyrus,OH,40.8083909,-82.9754649
Wanaque,NJ,41.0381526,-74.2940378
Green River,WY,41.5290933,-109.466473
Scotts Valley,CA,37.0510595,-122.014684
Dunkirk,NY,42.479502,-79.333932
Spearfish,SD,44.490817,-103.85937
Arlington,TN,35.2964487,-89.6617313
Milford,DE,38.9130453,-75.4278733
Excelsior Springs,MO,39.3417244,-94.2223507
