rank,city,state,population,latitude,longitude
1,New York,NY,8772978,40.7127281,-74.0060152
2,Los Angeles,CA,3889834,34.0536909,-118.242766
3,Chicago,IL,2741730,41.8755616,-87.6244212
4,Houston,TX,2300027,29.7589382,-95.3676974
5,Phoenix,AZ,1611345,33.4484367,-112.0741417
6,Philadelphia,PA,1601005,39.9527237,-75.1635262
7,San Antonio,TX,1438227,29.4246002,-98.4951405
8,San Diego,CA,1385394,32.7174202,-117.1627728
9,Dallas,TX,1303234,32.7762719,-96.7968559
10,San Jose,CA,1010908,37.3361905,-121.890583
11,Austin,TX,963121,30.2711286,-97.7436995
12,Jacksonville,FL,950463,30.3321838,-81.655651
13,Fort Worth,TX,922592,32.753177,-97.3327459
14,Columbus,OH,905860,39.9622601,-83.0007065
15,Indianapolis,IN,887382,39.7683331,-86.1583502
16,Charlotte,NC,876747,35.2272086,-80.8430827
17,San Francisco,CA,870014,37.7790262,-122.419906
18,Seattle,WA,738172,47.6038321,-122.3300624
19,Denver,CO,717630,39.7392364,-104.9848623
20,Washington,DC,690093,38.8950368,-77.0365427
21,Nashville,TN,689248,36.1622767,-86.7742984
22,Oklahoma City,OK,682760,35.4729886,-97.5170536
23,El Paso,TX,678598,31.7754152,-106.464634
24,Boston,MA,674272,42.3602534,-71.0582912
25,Portland,OR,652388,45.5202471,-122.6741949
26,Las Vegas,NV,643292,36.1672559,-115.148516
27,Detroit,MI,638176,42.3315509,-83.0466403
28,Louisville,KY,632037,38.2542376,-85.759407
29,Memphis,TN,631326,35.1335022,-89.9668758
30,Baltimore,MD,583132,39.2908816,-76.610759
31,Milwaukee,WI,576301,43.0349931,-87.922497
32,Albuquerque,NM,564648,35.21287095,-106.7132485
33,Fresno,CA,542159,36.7295295,-119.7088613
34,Tucson,AZ,541859,32.2228765,-110.9748477
35,Sacramento,CA,523416,38.5810606,-121.493895
36,Kansas City,MO,507932,39.100105,-94.5781416
37,Mesa,AZ,505860,33.4151117,-111.8314792
38,Atlanta,GA,499586,33.7489924,-84.3902644
39,Omaha,NE,491168,41.2587459,-95.9383758
40,Colorado Springs,CO,480213,38.8339578,-104.825348
41,Raleigh,NC,467425,35.7803977,-78.6390989
42,Long Beach,CA,464759,33.7690164,-118.191604
43,Virginia Beach,VA,459373,36.8529841,-75.9774183
44,Miami,FL,441889,25.7741728,-80.19362
45,Oakland,CA,439341,37.8044557,-122.2713563
46,Minneapolis,MN,429014,44.9772995,-93.2654692
47,Tulsa,OK,412629,36.1556805,-95.9929113
48,Bakersfield,CA,403401,35.3738712,-119.0194639
49,Wichita,KS,397117,37.6922361,-97.3375448
50,Arlington,TX,393985,32.701939,-97.10562379
51,Aurora,CO,386580,39.7405111,-104.8309947
52,Tampa,FL,383980,27.9477595,-82.458444
53,New Orleans,LA,383282,29.9759983,-90.0782127
54,Cleveland,OH,372032,41.4996562,-81.6936813
55,Honolulu,HI,349800,21.304547,-157.855676
56,Anaheim,CA,347089,33.8347516,-117.911732
57,Lexington,KY,322403,38.0464066,-84.4970393
58,Stockton,CA,320745,37.9577016,-121.2907796
59,Henderson,NV,319055,36.0301134,-114.9826194
60,Corpus Christi,TX,317852,27.7951482,-97.3942053
61,Riverside,CA,314655,33.9459413,-117.4102444
62,St. Paul,MN,310942,44.9497487,-93.0931028
63,Newark,NJ,310350,40.735657,-74.1723667
64,Cincinnati,OH,310113,39.1014537,-84.5124602
65,Santa Ana,CA,309888,33.7494951,-117.8732213
66,Orlando,FL,307603,28.5421109,-81.3790304
67,Irvine,CA,306389,33.6856969,-117.8259819
68,Pittsburgh,PA,302777,40.4416941,-79.9900861
69,St. Louis,MO,300528,38.6264256,-90.1995853
70,Greensboro,NC,297808,36.0726355,-79.7919754
71,Jersey City,NJ,291927,40.7215682,-74.047455
72,Lincoln,NE,291383,40.8088861,-96.7077751
73,Anchorage,AK,290637,61.2163129,-149.894852
74,Plano,TX,286668,33.0136764,-96.6925096
75,Durham,NC,284400,35.9825698,-78.90918653
76,Buffalo,NY,277908,42.8867166,-78.8783922
77,Chandler,AZ,277556,33.3061605,-111.84125
78,Chula Vista,CA,276466,32.6400541,-117.0841955
79,Toledo,OH,270041,41.6529143,-83.5378173
80,Gilbert,AZ,269206,33.3527632,-111.7890373
81,Madison,WI,268846,43.074761,-89.3837613
82,North Las Vegas,NV,264216,36.2005843,-115.121584
83,Fort Wayne,IN,264169,41.0799898,-85.1386015
84,Reno,NV,264116,39.5261206,-119.8126581
85,St. Petersburg,FL,258658,27.7703796,-82.6695085
86,Lubbock,TX,257882,33.5635206,-101.879336
87,Irving,TX,256873,32.8295183,-96.9442177
88,Laredo,TX,255336,27.5236998,-99.497352
89,Chesapeake,VA,249679,36.7183708,-76.2466798
90,Winston-Salem,NC,249349,36.0998131,-80.2440518
91,Glendale,AZ,248797,33.5386858,-112.1859941
92,Garland,TX,245478,32.912624,-96.6388833
93,Scottsdale,AZ,241933,33.4942189,-111.9260184
94,Norfolk,VA,237591,36.8968052,-76.2602336
95,Boise City,ID,235829,43.6166163,-116.200886
96,Fremont,CA,231673,37.5482697,-121.988571
97,Spokane,WA,228850,47.6571934,-117.4235106
98,Santa Clarita,CA,228487,34.3916641,-118.542586
99,Richmond,VA,226670,37.5385087,-77.43428
100,Baton Rouge,LA,224480,30.4459596,-91.18738
101,Hialeah,FL,222153,25.8670439,-80.29146452
102,San Bernardino,CA,221784,34.8253019,-116.0833144
103,Tacoma,WA,219383,47.2495798,-122.4398746
104,Modesto,CA,218459,37.6390972,-120.9968782
105,Huntsville,AL,215043,34.729847,-86.5859011
106,Des Moines,IA,213699,41.5910323,-93.6046655
107,Yonkers,NY,210970,40.9312099,-73.8987469
108,Rochester,NY,210943,43.157285,-77.615214
109,Moreno Valley,CA,209213,33.937517,-117.2305944
110,Fontana,CA,208810,34.0922335,-117.435048
111,Fayetteville,NC,208576,35.0525759,-78.878292
112,Columbus,GA,206960,32.4610708,-84.9880449
113,Port St. Lucie,FL,206752,27.2939333,-80.3503283
114,Worcester,MA,206242,42.2625621,-71.8018877
115,Frisco,TX,202786,33.1506744,-96.8236116
116,Little Rock,AR,202484,34.7465071,-92.2896267
117,Oxnard,CA,202242,34.1976308,-119.1803818
118,Augusta-Richmond County,GA,201850,33.4709714,-81.9748429
119,Amarillo,TX,200897,35.2072185,-101.8338246
120,Birmingham,AL,200133,33.5206824,-86.8024326
121,Montgomery,AL,200006,32.3669656,-86.3006485
122,Salt Lake City,UT,199587,40.7596198,-111.8867975
123,Huntington Beach,CA,198707,33.6783336,-118.0000166
124,Grand Rapids,MI,198173,42.9632405,-85.6678639
125,Overland Park,KS,197587,38.9742502,-94.6851702
126,McKinney,TX,197122,33.1976496,-96.6154471
127,Tallahassee,FL,196342,30.4380832,-84.2809332
128,Grand Prairie,TX,196331,32.7459645,-96.9977846
129,Cape Coral,FL,196290,26.6059432,-81.9806771
130,Glendale,CA,196208,34.1469416,-118.2478471
131,Sioux Falls,SD,193233,43.5460587,-96.7313928
132,Peoria,AZ,191985,33.5806115,-112.237294
133,Vancouver,WA,191071,45.6306954,-122.6744557
134,Knoxville,TN,190594,35.9603948,-83.9210261
135,Akron,OH,190164,41.083064,-81.518485
136,Providence,RI,190101,41.8239891,-71.4128343
137,Shreveport,LA,187338,32.5221828,-93.7651944
138,Brownsville,TX,186762,25.9140256,-97.4890856
139,Mobile,AL,186411,30.6943566,-88.0430541
140,Newport News,VA,185916,36.9775016,-76.42977
141,Fort Lauderdale,FL,182789,26.1223084,-80.1433786
142,Chattanooga,TN,181624,35.0457219,-85.3094883
143,Tempe,AZ,180823,33.4255056,-111.9400091
144,Aurora,IL,180355,41.7571701,-88.3147539
145,Santa Rosa,CA,177882,38.4404925,-122.7141049
146,Elk Grove,CA,177632,38.4087993,-121.3716178
147,Ontario,CA,175945,34.065846,-117.6484304
148,Salem,OR,175806,44.9391565,-123.033121
149,Cary,NC,175389,35.7882893,-78.7812081
150,Eugene,OR,174802,44.0505054,-123.0950506
151,Rancho Cucamonga,CA,174572,34.1279268,-117.5643221
152,Oceanside,CA,174128,33.1958696,-117.3794834
153,Lancaster,CA,172862,34.6981064,-118.1366153
154,Garden Grove,CA,171829,33.7746292,-117.9463717
155,Pembroke Pines,FL,170981,26.0031465,-80.223937
156,Springfield,MO,169626,37.2166779,-93.2920373
157,Palmdale,CA,169279,34.5793131,-118.1171108
158,Fort Collins,CO,169032,40.5508527,-105.0668085
159,Clarksville,TN,167258,36.5277607,-87.3588703
160,Salinas,CA,163397,36.6744117,-121.6550372
161,Hayward,CA,163269,37.6688205,-122.080796
162,Paterson,NJ,159419,40.9167654,-74.171811
163,Alexandria,VA,159097,38.8051095,-77.0470229
164,Corona,CA,157570,33.8752945,-117.5664449
165,Macon-Bibb County,GA,157104,32.8406946,-83.6324022
166,Kansas City,KS,156241,39.100105,-94.5781416
167,Lakewood,CO,156143,39.7085736,-105.0846694
168,Sunnyvale,CA,155860,37.3688301,-122.036349
169,Springfield,MA,155556,42.1018764,-72.5886727
170,Murfreesboro,TN,153342,35.8460396,-86.3921096
171,Killeen,TX,153044,31.1171441,-97.727796
172,Jackson,MS,152846,32.2990021,-90.1847691
173,Hollywood,FL,152705,26.0112014,-80.1494901
174,Bellevue,WA,151839,47.6144219,-122.192337
175,Pasadena,TX,151347,29.6910625,-95.2091006
176,Escondido,CA,151260,33.1216751,-117.0814849
177,Pomona,CA,151128,34.0553813,-117.7517496
178,Charleston,SC,150903,32.7876012,-79.9402728
179,Joliet,IL,150199,41.5263603,-88.0840212
180,Mesquite,TX,149680,32.7666103,-96.599472
181,Naperville,IL,149279,41.7728699,-88.1479278
182,Rockford,IL,148719,42.2713945,-89.093966
183,Roseville,CA,148435,38.7521235,-121.2880059
184,Bridgeport,CT,148271,41.1670412,-73.2048348
185,Savannah,GA,147701,32.0809263,-81.0911768
186,Syracuse,NY,147033,43.0481221,-76.1474244
187,Torrance,CA,146769,33.8358492,-118.3406288
188,Surprise,AZ,144412,33.6292271,-112.3680189
189,Fullerton,CA,143173,33.8739385,-117.9243399
190,McAllen,TX,142347,26.204114,-98.2300605
191,Denton,TX,142302,33.1838787,-97.1413417
192,Thornton,CO,142166,39.8695516,-104.985181
193,Visalia,CA,141828,36.3302284,-119.2920585
194,Olathe,KS,141400,38.8838856,-94.81887
195,West Valley City,UT,140209,40.6967254,-111.9868211
196,Gainesville,FL,139929,29.6519684,-82.3249846
197,Warren,MI,139129,42.4932575,-83.0062746
198,Orange,CA,138680,33.7500378,-117.8704931
199,Waco,TX,138289,31.549333,-97.1466695
200,Pasadena,CA,138196,34.1476452,-118.1444779
201,Dayton,OH,138060,39.7589478,-84.1916069
202,Cedar Rapids,IA,137581,41.9758872,-91.6704053
203,Columbia,SC,137314,38.88974405,-77.04086076
204,Hampton,VA,137131,37.0300969,-76.3452057
205,Elizabeth,NJ,136848,40.6639916,-74.2107006
206,Kent,WA,136628,47.3826903,-122.2270272
207,Stamford,CT,135685,41.0534302,-73.5387341
208,Victorville,CA,134742,34.5361067,-117.2911565
209,Miramar,FL,134373,25.9873137,-80.2322706
210,Sterling Heights,MI,134151,42.5803122,-83.0302033
211,Coral Springs,FL,134027,26.271192,-80.2706044
212,New Haven,CT,133966,41.3082138,-72.9250518
213,Carrollton,TX,133409,32.9537349,-96.8902816
214,Midland,TX,132720,32.02393955,-102.0964892
215,Santa Clara,CA,127426,37.2333253,-121.6846349
216,Norman,OK,127321,35.2225717,-97.4394816
217,Athens-Clarke County,GA,127141,33.9458693,-83.3557816
218,Thousand Oaks,CA,126652,34.1705609,-118.8375937
219,Simi Valley,CA,126366,34.2677404,-118.7538071
220,Topeka,KS,126269,39.049011,-95.677556
221,Pearland,TX,126086,29.5639758,-95.2864299
222,Allentown,PA,125971,40.6022059,-75.4712794
223,Fargo,ND,125853,46.877229,-96.789821
224,Columbia,MO,125852,38.9464035,-92.34846316
225,Vallejo,CA,125839,38.1040864,-122.2566367
226,Concord,CA,125176,37.9768525,-122.0335624
227,Abilene,TX,124954,32.44645,-99.7475905
228,Arvada,CO,124478,39.8005505,-105.0811573
229,Independence,MO,122927,39.0924792,-94.4137923
230,Ann Arbor,MI,122531,42.2681569,-83.7312291
231,Lafayette,LA,121996,30.2043259,-92.0298813
232,Rochester,MN,121396,44.0234387,-92.4630182
233,Hartford,CT,120957,41.764582,-72.6908547
234,Clovis,CA,120674,36.8252277,-119.7029194
235,Round Rock,TX,120498,30.5085915,-97.6788056
236,Palm Bay,FL,120181,27.9946969,-80.6366144
237,Fairfield,CA,119827,38.2493581,-122.039966
238,Meridian,ID,119729,43.6086295,-116.392326
239,Berkeley,CA,119463,37.8753497,-122.2396336
240,College Station,TX,118441,30.5955289,-96.3071042
241,Richardson,TX,117792,32.9481789,-96.7297206
242,Cambridge,MA,117699,42.3750997,-71.1056157
243,Evansville,IN,117258,37.9747645,-87.5558483
244,West Jordan,UT,117186,40.6061308,-111.9396586
245,West Palm Beach,FL,117179,26.715364,-80.0532942
246,Clearwater,FL,117046,27.9658533,-82.8001026
247,Billings,MT,117026,45.7874957,-108.49607
248,Westminster,CO,116304,39.8366528,-105.0372046
249,Richmond,CA,116238,37.9357576,-122.347748
250,Wilmington,NC,116146,34.2257282,-77.9447107
251,North Charleston,SC,115771,32.9131295,-80.0629982
252,Manchester,NH,115354,42.9956397,-71.4547891
253,Lowell,MA,115264,42.6334247,-71.3161718
254,Antioch,CA,115252,38.0049214,-121.805789
255,Carlsbad,CA,115073,33.1580933,-117.3505966
256,Odessa,TX,114852,31.8457149,-102.367687
257,League City,TX,114686,29.5074538,-95.0949303
258,Gresham,OR,114637,45.4997475,-122.4309766
259,Elgin,IL,114621,42.03726,-88.2810994
260,Springfield,IL,114245,39.7990175,-89.6439575
261,Beaumont,TX,114239,30.0860459,-94.1018461
262,Waterbury,CT,114159,41.5538091,-73.0438362
263,Downey,CA,114118,33.942215,-118.1235646
264,Provo,UT,114048,40.2337289,-111.6587085
265,Broken Arrow,OK,114024,36.0185695,-95.79088215
266,High Point,NC,113892,35.9556924,-80.0053176
267,Lansing,MI,112796,42.7337712,-84.5553805
268,Peoria,IL,112792,40.6938609,-89.5891008
269,Lakeland,FL,112558,28.0394654,-81.9498042
270,Lewisville,TX,112336,33.046233,-96.994174
271,Pueblo,CO,112119,38.2544472,-104.609141
272,Pompano Beach,FL,111966,26.2378597,-80.1247667
273,Las Cruces,NM,111738,32.3140354,-106.7798078
274,Costa Mesa,CA,111723,33.6636611,-117.9194652
275,Murrieta,CA,111351,33.5777524,-117.1884542
276,Miami Gardens,FL,111085,25.9423108,-80.23976495
277,Everett,WA,110930,47.9673056,-122.201399
278,Sugar Land,TX,110775,29.6196787,-95.6349463
279,San Buenaventura (Ventura),CA,110413,34.3640573,-119.3110159
280,Temecula,CA,110086,33.4946353,-117.1473661
281,Santa Maria,CA,109904,34.9531295,-120.4358577
282,Dearborn,MI,109657,42.3222599,-83.1763145
283,Greeley,CO,109388,40.4233142,-104.7091322
284,West Covina,CA,109345,34.0471735,-117.8963243
285,El Monte,CA,109166,34.0751571,-118.036849
286,Sparks,NV,109121,39.5404679,-119.7487235
287,Sandy Springs,GA,108172,33.9242688,-84.3785379
288,Centennial,CO,108095,39.579155,-104.8769227
289,South Fulton,GA,107623,33.5902659,-84.6712292
290,Inglewood,CA,107534,33.9562003,-118.353132
291,Burbank,CA,107320,34.1816482,-118.3258554
292,Green Bay,WI,107114,44.5126379,-88.0125794
293,Hillsboro,OR,106922,45.5228939,-122.989827
294,Renton,WA,106763,47.4799078,-122.2034496
295,El Cajon,CA,106176,32.7947731,-116.962526
296,Tyler,TX,105976,32.3512601,-95.3010624
297,Concord,NC,105769,35.4094178,-80.5800049
298,Allen,TX,105628,33.1031744,-96.6705503
299,Brockton,MA,105579,42.0834335,-71.0183787
300,Davie,FL,105553,26.0628665,-80.2331038
301,San Mateo,CA,105308,37.496904,-122.3330573
302,Jurupa Valley,CA,105306,33.9798472,-117.4515754
303,Boulder,CO,105262,40.0149856,-105.270545
304,Daly City,CA,104571,37.6904826,-122.47267
305,Rio Rancho,NM,104257,35.269381,-106.632819
306,Rialto,CA,104199,34.1064001,-117.3703235
307,Spokane Valley,WA,103778,47.6571104,-117.2613936
308,South Bend,IN,103527,41.6833813,-86.2500066
309,Menifee,CA,103227,33.6864432,-117.1770437
310,Vacaville,CA,102672,38.3565773,-121.9877444
311,Wichita Falls,TX,102640,33.9137085,-98.4933873
312,Norwalk,CA,102532,33.9092802,-118.0849169
313,Chico,CA,102177,39.7284945,-121.8374777
314,Quincy,MA,101606,42.2509914,-71.0037374
315,Lee's Summit,MO,101600,38.9107156,-94.3821295
316,Davenport,IA,101584,41.5236436,-90.5776368
317,Nampa,ID,101124,43.5737361,-116.559631
318,Lynn,MA,101118,42.466763,-70.9494939
319,Federal Way,WA,101019,47.313494,-122.3393103
320,New Bedford,MA,100970,41.6362152,-70.934205
321,Longmont,CO,100359,40.1672117,-105.1019287
322,Hesperia,CA,100200,34.4263886,-117.3008784
323,San Angelo,TX,100093,31.4649685,-100.4405094
324,Edinburg,TX,100039,26.3013982,-98.1624501
325,Tuscaloosa,AL,99960,33.2095614,-87.5675258
326,Carmel,IN,99892,39.9788017,-86.1189257
327,Roanoke,VA,99875,37.270973,-79.9414313
328,Kenosha,WI,99733,42.5846773,-87.8212263
329,Bend,OR,99533,44.0581728,-121.3153096
330,Fishers,IN,99451,39.9555928,-86.0138729
331,Albany,NY,99133,42.6511674,-73.754968
332,Vista,CA,98508,33.2000368,-117.2425355
333,Orem,UT,98294,40.2981599,-111.6944313
334,Portsmouth,VA,98015,36.8444196,-76.3532998
335,Beaverton,OR,97447,45.4871723,-122.80378
336,Sandy,UT,97039,40.5710454,-111.8953815
337,Sunrise,FL,97035,26.1471902,-80.32966129
338,Yakima,WA,96890,46.601557,-120.510842
339,Goodyear,AZ,96534,33.4353672,-112.3576
340,Boca Raton,FL,96241,26.3586885,-80.0830984
341,Yuma,AZ,96034,32.665135,-114.4760316
342,St. George,UT,95927,37.104153,-113.5841313
343,Compton,CA,95611,33.894927,-118.226624
344,Livonia,MI,95336,42.36837,-83.3527097
345,Carson,CA,95074,33.8322043,-118.2517547
346,Reading,PA,94981,40.335345,-75.9279495
347,San Marcos,CA,94973,33.1433723,-117.1661449
348,Lawrence,KS,94933,38.9719384,-95.2359496
349,Edmond,OK,94740,35.6571367,-97.4649038
350,Suffolk,VA,94685,36.7282096,-76.5835703
351,Erie,PA,94639,42.1294712,-80.0852695
352,Deltona,FL,94438,28.9005446,-81.2636738
353,Asheville,NC,94406,35.6009498,-82.5540161
354,Fayetteville,AR,94020,36.0625843,-94.1574328
355,Fall River,MA,93885,41.7010642,-71.1546367
356,Tracy,CA,93590,37.7385507,-121.4201395
357,Mission Viejo,CA,93528,33.5965685,-117.659405
358,Redding,CA,93393,40.5863563,-122.391675
359,Buckeye,AZ,93314,33.3703197,-112.583776
360,Roswell,GA,92989,34.02332,-84.360022
361,Kirkland,WA,92755,47.6859573,-122.1920249
362,Santa Monica,CA,92711,34.0194704,-118.4912273
363,Hoover,AL,92687,33.4092646,-86.66217961
364,South Gate,CA,92634,33.9463456,-118.200981
365,Plantation,FL,91969,26.12744855,-80.25779068
366,O'Fallon,MO,91643,38.7910374,-90.7039107
367,Bellingham,WA,91570,48.7544012,-122.4788361
368,Chino,CA,91367,34.0133561,-117.690075
369,San Leandro,CA,91338,37.7249296,-122.1560768
370,New Braunfels,TX,91319,29.7028266,-98.1257348
371,Nashua,NH,91221,42.7656251,-71.4677032
372,Norwalk,CT,90975,41.1175966,-73.4078968
373,Westminster,CA,90906,33.7578725,-117.9859054
374,Mount Pleasant,SC,90871,32.7940651,-79.8625851
375,Trenton,NJ,90662,40.2170575,-74.7429463
376,Lawton,OK,90517,34.6086854,-98.3903305
377,Conroe,TX,90358,30.3118769,-95.4560512
378,Clifton,NJ,90031,40.8584328,-74.1637553
379,Bloomington,MN,89854,44.8322405,-93.3204872
380,Hemet,CA,89830,33.7475203,-116.9719684
381,Palm Coast,FL,89748,29.5541432,-81.2207673
382,Avondale,AZ,89670,33.4355977,-112.349602
383,Indio,CA,89243,33.743765,-116.2233152
384,Waukegan,IL,89158,42.3636331,-87.8447938
385,Fort Smith,AR,89141,35.3784666,-94.3996456
386,Lawrence,MA,89024,42.7070354,-71.1631137
387,Santa Barbara,CA,88695,34.4221319,-119.7026673
388,Newton,MA,88624,42.3370414,-71.2092214
389,Livermore,CA,88487,37.6820583,-121.7680531
390,Champaign,IL,88418,40.1164841,-88.2430932
391,Greenville,NC,88098,35.613224,-77.3724593
392,Hawthorne,CA,87938,33.9188589,-118.3483256
393,Citrus Heights,CA,87911,38.7071247,-121.2810611
394,Santa Fe,NM,87684,35.6876096,-105.9384569
395,Springdale,AR,87390,36.1867442,-94.1288142
396,Auburn,WA,87143,47.3075369,-122.2301808
397,Troy,MI,87125,42.6055893,-83.1499304
398,Whittier,CA,87045,33.9708782,-118.0308396
399,Ogden,UT,86726,41.2230048,-111.9738429
400,Deerfield Beach,FL,86716,26.318342,-80.0996306
401,San Ramon,CA,86669,37.7648021,-121.9544387
402,Duluth,MN,86601,46.7729322,-92.1251218
403,Merced,CA,86515,37.1641544,-120.7678602
404,Brooklyn Park,MN,86411,45.1004807,-93.3443585
405,Danbury,CT,86356,41.394817,-73.4540111
406,Fort Myers,FL,86354,26.640628,-81.8723084
407,Lake Forest,CA,86005,33.6469261,-117.6859213
408,Mission,TX,85870,26.2159066,-98.3252932
409,Medford,OR,85861,42.3264181,-122.8718605
410,Bryan,TX,85810,30.6743643,-96.3699632
411,Sioux City,IA,85654,42.4966815,-96.4058782
412,Lake Charles,LA,85352,30.2265949,-93.2173759
413,Newport Beach,CA,85333,33.6170092,-117.9294401
414,Westland,MI,85274,42.3238056,-83.4005321
415,Cicero,IL,84864,41.8455398,-87.7540199
416,Melbourne,FL,84373,28.106471,-80.6371513
417,Redwood City,CA,84180,37.4863239,-122.232523
418,Buena Park,CA,83968,33.870413,-117.9962165
419,Manteca,CA,83948,37.7986184,-121.2117148
420,Kennewick,WA,83922,46.2087066,-119.1199192
421,Franklin,TN,83887,35.925206,-86.8689419
422,Farmington Hills,MI,83781,42.4853125,-83.3771553
423,Baytown,TX,83495,29.7355047,-94.9774274
424,Warwick,RI,82960,41.7002024,-71.4161108
425,Cranston,RI,82833,41.7809588,-71.4371257
426,Alhambra,CA,82748,34.093042,-118.12706
427,Johns Creek,GA,82591,34.0181557,-84.190196
428,Largo,FL,82515,27.9094665,-82.7873244
429,Mountain View,CA,82455,37.3893889,-122.0832101
430,Temple,TX,82454,31.098207,-97.3427847
431,Lakewood,CA,82403,33.8503463,-118.1171914
432,Miami Beach,FL,82345,25.7929198,-80.1353006
433,Layton,UT,81967,41.0751048,-111.9741925
434,Longview,TX,81713,32.5007031,-94.74049
435,Flint,MI,81201,43.0161693,-83.6900211
436,Plymouth,MN,81091,45.0065149,-93.46651
437,Somerville,MA,80842,42.3875968,-71.0994968
438,Parma,OH,80824,41.3822398,-81.7355692
439,Boynton Beach,FL,80631,26.5256179,-80.0666026
440,New Rochelle,NY,80559,40.9115386,-73.7826363
441,Warner Robins,GA,80494,32.6200973,-83.606568
442,Homestead,FL,80423,25.4718946,-80.4759905
443,Gastonia,NC,80392,35.2622158,-81.1838794
444,Milpitas,CA,80363,37.4282771,-121.9069256
445,Pleasanton,CA,80201,37.6624312,-121.8746789
446,Tustin,CA,80023,33.7458511,-117.826166
447,Pharr,TX,79836,26.1947962,-98.1836216
448,Bloomington,IN,79801,39.1670396,-86.5342881
449,Rancho Cordova,CA,79790,38.567526,-121.2232054
450,Folsom,CA,79475,38.6779591,-121.1760583
451,Kissimmee,FL,79158,28.2918995,-81.4075838
452,Upland,CA,79118,34.09751,-117.6483876
453,Napa,CA,79051,38.2971367,-122.2855293
454,Bellflower,CA,79019,33.8825705,-118.1167679
455,Perris,CA,78897,33.7825194,-117.2286478
456,Lynchburg,VA,78871,37.4137536,-79.1422464
457,Evanston,IL,78796,42.0447388,-87.6930459
458,Jonesboro,AR,78787,35.8428646,-90.7034522
459,Chino Hills,CA,78544,33.9926803,-117.760056
460,Schaumburg,IL,78443,42.0333608,-88.083406
461,Alameda,CA,78333,37.6090291,-121.899142
462,Bloomington,IL,78226,40.4797828,-88.9939147
463,Frederick,MD,78215,39.415779,-77.4127562
464,South Jordan,UT,78082,40.5584882,-111.9367107
465,Cedar Park,TX,78038,30.5217116,-97.827833
466,Pasco,WA,77856,46.2306739,-119.0921006
467,Hammond,IN,77607,41.5833658,-87.500043
468,Racine,WI,77578,42.7260523,-87.7825242
469,Arlington Heights,IL,77377,42.0811563,-87.9802164
470,Lehi,UT,77000,40.3881114,-111.8486019
471,Flagstaff,AZ,76960,35.1987522,-111.6518229
472,Wyoming,MI,76772,42.9132581,-85.7057035
473,Loveland,CO,76622,40.3977612,-105.0749801
474,Pittsburg,CA,76600,38.0181745,-121.8901232
475,Auburn,AL,76429,32.6098566,-85.4807825
476,Southfield,MI,76367,42.4733689,-83.2218731
477,Flower Mound,TX,76330,33.0283854,-97.0867203
478,Rochester Hills,MI,76135,42.6583661,-83.1499322
479,Doral,FL,76094,25.8195424,-80.3553302
480,Scranton,PA,75950,41.4086874,-75.6621294
481,Apple Valley,CA,75929,34.5008311,-117.1858759
482,North Port,FL,75816,27.044224,-82.2359254
483,Pawtucket,RI,75721,41.878711,-71.3825558
484,Bethlehem,PA,75629,40.6178915,-75.3786521
485,Woodbury,MN,75479,44.919896,-92.9339449
486,Appleton,WI,75300,44.2613967,-88.4069744
487,Broomfield,CO,74513,39.9403995,-105.0520809
488,Iowa City,IA,74443,41.6612561,-91.5299106
489,Missouri City,TX,74380,29.6185669,-95.5377215
490,Rapid City,SD,74350,44.0869329,-103.2274481
491,Lauderhill,FL,74271,26.1403635,-80.2133808
492,Rock Hill,SC,74157,34.9248667,-81.0250784
493,New Britain,CT,74062,41.6612104,-72.7795419
494,Missoula,MT,73949,46.8701049,-113.995267
495,Bolingbrook,IL,73831,41.7003302,-88.0717708
496,Kalamazoo,MI,73707,42.291707,-85.5872286
497,Castle Rock,CO,73700,39.3722552,-104.8586826
498,Bismarck,ND,73675,46.808327,-100.783739
499,Mount Vernon,NY,73483,40.9125815,-73.8370786
500,Redmond,WA,73422,47.6694141,-122.1238767
501,Jacksonville,NC,73183,34.7494749,-77.4208221
502,Redlands,CA,73023,34.0550328,-117.1827445
503,Gulfport,MS,72837,30.3674198,-89.0928155
504,Mansfield,TX,72778,32.5631924,-97.1416768
505,Bowling Green,KY,72642,36.9903199,-86.4436018
506,Turlock,CA,72611,37.4946568,-120.8465941
507,Dublin,CA,72312,37.7021521,-121.9357918
508,St. Joseph,MO,72293,39.7686055,-94.8466322
509,Framingham,MA,72162,42.3095704,-71.4413097
510,Baldwin Park,CA,72082,34.0854739,-117.9611761
511,Camden,NJ,71976,39.9448402,-75.1198911
512,Tamarac,FL,71842,26.2048464,-80.2708048
513,Daytona Beach,FL,71838,29.2108147,-81.0228331
514,Harlingen,TX,71803,26.1907543,-97.6960599
515,Rocklin,CA,71801,38.7907339,-121.2357828
516,Bayonne,NJ,71546,40.6687141,-74.1143091
517,Waukesha,WI,71365,43.0053145,-88.2473643
518,Redondo Beach,CA,71261,33.8455911,-118.3886766
519,Dothan,AL,71154,31.2237434,-85.3933906
520,Greenville,SC,70899,34.851354,-82.3984882
521,Marysville,WA,70894,48.0517429,-122.1768209
522,Wilmington,DE,70875,39.7459468,-75.546589
523,Camarillo,CA,70844,34.2176371,-119.0383541
524,Lafayette,IN,70809,40.4211664,-86.8943695
525,Canton,OH,70784,40.7985464,-81.3749508
526,Johnson City,TN,70576,36.3134398,-82.3534728
527,St. Charles,MO,70562,38.7877791,-90.6747372
528,Maple Grove,MN,70518,45.0984983,-93.4419222
529,Decatur,IL,70514,39.8454163,-88.9524151
530,Blaine,MN,70505,45.1607987,-93.2349489
531,Union City,CA,70460,37.5963232,-122.0816297
532,Lake Elsinore,CA,70415,33.6680772,-117.3272615
533,Passaic,NJ,70316,40.8567663,-74.1284764
534,North Richland Hills,TX,70310,32.8342952,-97.2289029
535,Lakeville,MN,70175,44.650051,-93.2432791
536,Rogers,AR,70123,36.3320197,-94.1185366
537,Eastvale,CA,70023,33.9747067,-117.566541
538,Walnut Creek,CA,69974,37.9020731,-122.0618702
539,Yuba City,CA,69952,39.1404477,-121.6169108
540,Noblesville,IN,69800,40.0455918,-86.0085955
541,East Orange,NJ,69577,40.767323,-74.2048677
542,Gaithersburg,MD,69522,39.1399187,-77.1929215
543,Albany,GA,69486,31.5782062,-84.1556809
544,Eau Claire,WI,69313,44.811349,-91.4984941
545,Tulare,CA,69197,36.2516475,-118.852583
546,West Des Moines,IA,68895,41.5645337,-93.7595281
547,Gary,IN,68853,41.6020962,-87.3370647
548,Eagan,MN,68766,44.818173,-93.1659179
549,St. Cloud,MN,68711,45.5616075,-94.1642004
550,Palo Alto,CA,68486,37.4443293,-122.1598465
551,Yorba Linda,CA,68431,33.8901096,-117.8249705
552,Portland,ME,68427,43.6610277,-70.2548596
553,Ankeny,IA,68316,41.7318715,-93.6003837
554,Georgetown,TX,68227,30.6326942,-97.6772311
555,Jackson,TN,68169,35.6144446,-88.8177418
556,Union City,NJ,68087,40.7795455,-74.0237512
557,Weston,FL,67928,26.10315835,-80.40284231
558,San Marcos,TX,67701,29.8826436,-97.9405828
559,Haverhill,MA,67690,42.7777829,-71.0767724
560,Skokie,IL,67682,42.0333694,-87.7333972
561,Palatine,IL,67588,42.1105779,-88.0336888
562,Sammamish,WA,67534,47.6088445,-122.0423067
563,Shawnee,KS,67405,39.0273676,-95.7627535
564,Waterloo,IA,67381,42.4979693,-92.3329637
565,Rockville,MD,67357,39.0817985,-77.1516844
566,Lynwood,CA,66897,33.924831,-118.2024154
567,Schenectady,NY,66879,42.8142432,-73.9395687
568,Delray Beach,FL,66839,26.4614625,-80.0728201
569,Oshkosh,WI,66693,44.0206919,-88.5408574
570,Davis,CA,66659,38.545379,-121.744583
571,Madera,CA,66523,36.9622745,-120.0594685
572,Lodi,CA,66471,38.1301968,-121.2724473
573,Kenner,LA,66323,29.9942265,-90.2417806
574,Novi,MI,66186,42.48059,-83.4754913
575,South San Francisco,CA,66128,37.6535403,-122.4168664
576,Malden,MA,66114,42.4250964,-71.066163
577,Ames,IA,65999,42.0267567,-93.6170448
578,Alpharetta,GA,65968,34.0709576,-84.2747329
579,Pflugerville,TX,65964,30.4393696,-97.6200043
580,Grand Junction,CO,65822,39.063956,-108.5507317
581,Idaho Falls,ID,65657,43.4887907,-112.03628
582,Janesville,WI,65643,42.6829765,-89.0226793
583,Victoria,TX,65590,28.8026443,-96.9766308
584,Lorain,OH,65324,41.4673238,-82.1781904
585,Muncie,IN,65241,40.1936892,-85.3865271
586,Cheyenne,WY,65161,41.139981,-104.820246
587,Utica,NY,65102,43.1009031,-75.2326641
588,Waltham,MA,64817,42.3756401,-71.2358004
589,North Little Rock,AR,64665,34.769536,-92.2670941
590,Burnsville,MN,64530,44.7670567,-93.2773887
591,Brentwood,CA,64499,37.9317766,-121.696026
592,Laguna Niguel,CA,64359,33.5225261,-117.7075526
593,San Clemente,CA,64346,33.4270275,-117.6124179
594,Eden Prairie,MN,64335,44.8546856,-93.470786
595,Bellevue,NE,64301,41.1434547,-95.9124686
596,Greenwood,IN,64035,39.6136578,-86.1066526
597,Conway,AR,63783,35.2521996,-92.6888936
598,Millcreek,UT,63637,40.6992918,-111.8555839
599,Lakewood,WA,63619,47.1717649,-122.518458
600,Ocala,FL,63600,29.1871986,-82.1400923
601,Coon Rapids,MN,63590,45.1728923,-93.3023898
602,Moore,OK,63503,35.3395135,-97.4867045
603,Hamilton,OH,63361,39.3995067,-84.5613428
604,Taylor,MI,63252,42.240872,-83.2696509
605,La Habra,CA,63140,33.9316066,-117.9454867
606,Dearborn Heights,MI,63120,42.3369816,-83.2732627
607,Port Orange,FL,62940,29.10162805,-81.01059618
608,Commerce City,CO,62793,39.8083196,-104.9338675
609,Rowlett,TX,62743,32.9029017,-96.56388
610,Bossier City,LA,62653,32.5369356,-93.6952689
611,Council Bluffs,IA,62625,41.2621283,-95.8613912
612,Porterville,CA,62619,36.06523,-119.0167679
613,Montebello,CA,62527,34.0159398,-118.111975
614,Springfield,OR,62295,44.0462362,-123.0220289
615,Santa Cruz,CA,62251,37.050096,-121.9905908
616,Hendersonville,TN,62040,36.3049177,-86.621443
617,Encinitas,CA,62037,33.0369867,-117.2919818
618,Pico Rivera,CA,61995,33.9830688,-118.096735
619,Wellington,FL,61779,26.63799875,-80.25590781
620,Huntersville,NC,61574,35.4108278,-80.8429304
621,Revere,MA,61565,42.4084302,-71.0119948
622,Pontiac,MI,61390,42.6389216,-83.2910468
623,Chapel Hill,NC,61272,35.9131542,-79.05578
624,Vineland,NJ,61202,39.4862777,-75.0254256
625,San Rafael,CA,61154,37.9735346,-122.5310874
626,La Mesa,CA,61111,32.7678288,-117.0230839
627,Euless,TX,61105,32.8457865,-97.06671425
628,Jupiter,FL,61048,26.9342246,-80.0942087
629,Monterey Park,CA,61012,34.051522,-118.129807
630,Leander,TX,60965,30.5603086,-97.8553655
631,Queen Creek,AZ,60942,33.2483858,-111.6341585
632,Marietta,GA,60940,33.9528472,-84.5496148
633,Woodland,CA,60917,38.6786109,-121.7733285
634,Gardena,CA,60892,33.8963593,-118.3053037
635,Richland,WA,60798,46.2804298,-119.2752055
636,Sanford,FL,60760,28.8117345,-81.2680223
637,Meriden,CT,60703,41.5381535,-72.8070435
638,Bristol,CT,60665,41.6735209,-72.9464859
639,Youngstown,OH,60598,41.1035786,-80.6520161
640,Hoboken,NJ,60590,40.7433066,-74.0323752
641,Des Plaines,IL,60511,42.0415823,-87.8873916
642,Caldwell,ID,60482,43.6678736,-116.6894156
643,Taylorsville,UT,60449,40.6677096,-111.9385867
644,Medford,MA,60425,42.4184296,-71.1061639
645,Great Falls,MT,60420,47.5048851,-111.29189
646,Cupertino,CA,60343,37.3228934,-122.0322895
647,West Allis,WI,60223,43.0166806,-88.0070315
648,Owensboro,KY,60183,37.7742152,-87.1133304
649,Santee,CA,60057,32.8383828,-116.9739167
650,North Miami,FL,59965,25.8900949,-80.1867138
651,Apex,NC,59945,35.7325352,-78.8505516
652,Corvallis,OR,59697,44.5645659,-123.2620435
653,Petaluma,CA,59678,38.2325829,-122.636465
654,Kokomo,IN,59606,40.4864444,-86.1336351
655,Dubuque,IA,59565,42.5006243,-90.6647985
656,White Plains,NY,59564,41.0339862,-73.7629097
657,Gilroy,CA,59493,37.0065078,-121.5631723
658,Taunton,MA,59428,41.8946107,-71.11113
659,St. Cloud,FL,59404,28.2498534,-81.2839038
660,Palm Beach Gardens,FL,59253,26.8233946,-80.1386547
661,Casper,WY,59242,42.8501191,-106.325138
662,Stonecrest,GA,59181,33.6831296,-84.1358505
663,Maricopa,AZ,59133,33.34883,-112.49123
664,Hempstead,NY,59000,40.6399646,-73.6138556
665,Grand Forks,ND,58942,47.9078244,-97.0592028
666,Springfield,OH,58801,39.9234046,-83.810138
667,Parker,CO,58800,39.5184514,-104.7612638
668,Blue Springs,MO,58774,39.017316,-94.282265
669,St. Clair Shores,MI,58751,42.4969652,-82.8890965
670,Shoreline,WA,58699,47.7564667,-122.3437497
671,Carson City,NV,58677,39.1649125,-119.7666496
672,Margate,FL,58552,26.2445263,-80.206436
673,Terre Haute,IN,58543,39.4667025,-87.4139119
674,Orland Park,IL,58501,41.630663,-87.8536288
675,Midwest City,OK,58466,35.4495097,-97.3967025
676,Bowie,MD,58226,38.9424464,-76.7301718
677,Royal Oak,MI,58098,42.4894801,-83.1446485
678,Oak Lawn,IL,58089,41.7108662,-87.7581081
679,Hanford,CA,58006,36.3274502,-119.6456844
680,Wylie,TX,57930,33.0151201,-96.5388789
681,Decatur,AL,57777,34.6060203,-86.9838165
682,Lancaster,PA,57712,40.03813,-76.3056686
683,Bartlett,TN,57711,35.2045329,-89.8739753
684,St. Peters,MO,57678,38.791612,-90.5958468
685,Coconut Creek,FL,57668,26.2517482,-80.1789351
686,Kettering,OH,57648,39.6895036,-84.1688274
687,Burlington,NC,57593,36.0956918,-79.4377991
688,Weymouth Town,MA,57568,42.2212188,-70.9391625
689,Lenexa,KS,57501,38.9697458,-94.7845837
690,Lake Havasu City,AZ,57415,34.4838502,-114.3224495
691,Madison,AL,57389,34.7736807,-86.5675095
692,Highland,CA,57070,34.11213,-117.1807973
693,Fountain Valley,CA,57054,33.7038145,-117.9627349
694,Berwyn,IL,56913,41.8505874,-87.7936685
695,Mount Prospect,IL,56626,42.0664167,-87.9372908
696,Albany,OR,56599,44.6365071,-123.1059324
697,Arcadia,CA,56512,34.1362075,-118.0401497
698,Herriman,UT,56321,40.5139784,-112.0329086
699,Pocatello,ID,56282,42.8620287,-112.450627
700,National City,CA,56149,32.6781085,-117.0991967
701,Apple Valley,MN,56135,44.7319094,-93.21772
702,DeSoto,TX,56074,32.5897831,-96.8570183
703,Tinley Park,IL,55770,41.5733669,-87.7844944
704,Smyrna,GA,55635,33.883887,-84.5147454
705,Olympia,WA,55626,47.0451022,-122.8950075
706,Port Arthur,TX,55550,29.8988618,-93.9288723
707,Bradenton,FL,55497,27.4989278,-82.5748194
708,New Brunswick,NJ,55483,40.4862174,-74.4518173
709,Chicopee,MA,55481,42.1487691,-72.6071119
710,Valdosta,GA,55468,30.8327022,-83.2784851
711,West Haven,CT,55455,41.2706527,-72.9470471
712,Perth Amboy,NJ,55389,40.5067723,-74.2654234
713,Kingsport,TN,55366,36.550238,-82.5594293
714,Brookhaven,GA,55119,33.8584368,-84.340203
715,Diamond Bar,CA,55026,34.0286226,-117.8103367
716,Tigard,OR,54995,45.4307473,-122.771933
717,Apopka,FL,54874,28.6779683,-81.5115214
718,Huntington Park,CA,54806,33.9827043,-118.2120343
719,Southaven,MS,54774,34.9873822,-90.0034862
720,Coeur d'Alene,ID,54770,47.6742994,-116.7811531
721,Bentonville,AR,54675,36.3728538,-94.2088172
722,Anderson,IN,54669,40.1053196,-85.6802541
723,Yucaipa,CA,54605,34.033625,-117.0430865
724,Manhattan,KS,54544,39.1836082,-96.5716694
725,Plainfield,NJ,54418,40.6337136,-74.4073737
726,Peabody,MA,54410,42.5278731,-70.9286609
727,Pensacola,FL,54359,30.421309,-87.2169149
728,Casa Grande,AZ,54335,32.8795022,-111.757352
729,Oak Park,IL,54318,41.8878145,-87.7887615
730,Kentwood,MI,54305,42.8694731,-85.6447492
731,Rocky Mount,NC,54248,35.9423833,-77.7956949
732,Minnetonka,MN,54241,44.9405086,-93.4638936
733,Sarasota,FL,54155,27.3365805,-82.5308545
734,San Jacinto,CA,54086,33.7839664,-116.9589086
735,Bonita Springs,FL,54006,26.3618039,-81.79313612
736,Colton,CA,53975,34.0739016,-117.3136547
737,Elkhart,IN,53951,41.6819935,-85.9766671
738,Lacey,WA,53828,47.0263876,-122.8072257
739,West Sacramento,CA,53631,38.5804609,-121.530234
740,Paramount,CA,53631,33.898917,-118.171005
741,Wheaton,IL,53593,41.8646959,-88.1101709
742,Normal,IL,53575,40.5092961,-88.9843937
743,Beaumont,CA,53549,33.9299925,-116.9763092
744,Galveston,TX,53520,29.299328,-94.7945882
745,Smyrna,TN,53516,35.9824598,-86.5199492
746,Kannapolis,NC,53431,35.4874708,-80.621438
747,Edina,MN,53430,44.8897027,-93.3501222
748,Pinellas Park,FL,53359,27.8599115,-82.70437834
749,Bozeman,MT,53119,45.6794293,-111.044047
750,Novato,CA,53006,38.1061979,-122.5681191
751,Methuen,MA,52999,42.7262016,-71.1908924
752,Grand Island,NE,52944,40.924271,-98.338685
753,Marana,AZ,52758,32.4446988,-111.215709
754,Elyria,OH,52730,41.3673191,-82.1073583
755,Logan,UT,52665,41.7313447,-111.8348631
756,La Crosse,WI,52647,43.8014053,-91.2395429
757,Watsonville,CA,52623,36.9092773,-121.7529071
758,Battle Creek,MI,52541,42.3192548,-85.1824269
759,Glendora,CA,52505,34.1361187,-117.865339
760,West New York,NJ,52493,40.7856117,-74.0093129
761,Florissant,MO,52445,38.7919683,-90.3227803
762,Hoffman Estates,IL,52333,42.0427256,-88.0792782
763,Texas City,TX,52259,29.396013,-94.9175485
764,Aliso Viejo,CA,52173,33.5761376,-117.7258122
765,Burien,WA,52004,47.469918,-122.3485274
766,Delano,CA,51864,35.7688425,-119.2470536
767,Twin Falls,ID,51816,42.5704456,-114.4602554
768,Placentia,CA,51789,33.8714814,-117.8617337
769,Joplin,MO,51703,37.08418,-94.51323
770,Harrisonburg,VA,51675,38.4493315,-78.8688833
771,Cathedral City,CA,51577,33.82298655,-116.4668702
772,Dunwoody,GA,51539,33.9463786,-84.3342686
773,Collierville,TN,51247,35.042036,-89.6645266
774,Covina,CA,51246,34.0877926,-117.8891164
775,Palm Desert,CA,51167,33.74079965,-116.3693698
776,Enid,OK,51149,36.3967623,-97.8791341
777,Rosemead,CA,51138,34.0676169,-118.0879763
778,Mishawaka,IN,51126,41.6611642,-86.1807031
779,Middletown,OH,51026,39.5150576,-84.3982763
780,Cuyahoga Falls,OH,51014,41.1348213,-81.4848086
781,Summerville,SC,51010,33.0186699,-80.1762704
782,Grapevine,TX,50756,32.9337381,-97.0788754
783,Lakewood,OH,50693,41.4819932,-81.7981908
784,Troy,NY,50684,42.7284117,-73.6917878
785,Winter Haven,FL,50603,28.0222435,-81.7328568
786,Spring Hill,TN,50595,35.751179,-86.9300023
787,Murray,UT,50589,40.6667841,-111.888417
788,Milford,CT,50532,41.2222218,-73.0570603
789,Draper,UT,50481,40.524761,-111.8637305
790,Mooresville,NC,50452,35.5848596,-80.8100724
791,Columbus,IN,50391,39.2014405,-85.9213796
792,Cypress,CA,50266,33.8248235,-118.0399368
793,Downers Grove,IL,50126,41.7936822,-88.0102281
794,Harrisburg,PA,50069,40.2663107,-76.8861122
795,St. Louis Park,MN,50020,44.9475726,-93.3569023
796,Chesterfield,MO,49956,38.661953,-90.5643258
797,Newark,OH,49952,40.0581205,-82.4012643
798,Sheboygan,WI,49945,43.7508284,-87.71453
799,Lincoln,CA,49855,38.8598295,-121.3423921
800,Bedford,TX,49803,32.844017,-97.1430671
801,Azusa,CA,49616,34.1338751,-117.9056046
802,Jeffersonville,IN,49494,38.2770227,-85.7371604
803,Euclid,OH,49487,41.5931049,-81.5267873
804,Cerritos,CA,49487,33.8644291,-118.0539323
805,Biloxi,MS,49456,30.4007626,-88.8893818
806,Dublin,OH,49373,40.0992294,-83.1140771
807,Lawrence,IN,49293,39.8386516,-86.0252612
808,Ceres,CA,49282,37.5949316,-120.9577098
809,Coral Gables,FL,49240,25.72149,-80.2683838
810,Cedar Hill,TX,49126,32.5888072,-96.9553675
811,Everett,MA,49008,42.40843,-71.0536625
812,Barnstable Town,MA,48919,41.7001132,-70.2994666
813,Portage,MI,48877,42.2011538,-85.5800022
814,Poway,CA,48835,32.9628234,-117.0358646
815,Titusville,FL,48769,28.6122187,-80.8075538
816,Charleston,WV,48695,38.3505995,-81.6332812
817,Glenview,IL,48632,42.0863023,-87.82609487
818,Niagara Falls,NY,48592,43.08436,-79.0614686
819,Roswell,NM,48541,33.3943282,-104.5229518
820,Leesburg,VA,48426,39.1154496,-77.5645446
821,Minot,ND,48306,48.23251,-101.296273
822,Wauwatosa,WI,48302,43.0494122,-88.0079271
823,Bothell,WA,48164,47.7598697,-122.2068288
824,Burleson,TX,48132,30.4764878,-96.6353488
825,Newark,CA,48014,37.5296593,-122.0402399
826,Rancho Santa Margarita,CA,48002,33.6408845,-117.6029341
827,Wake Forest,NC,47987,35.9803138,-78.5103731
828,Wilson,NC,47945,35.7212689,-77.9155395
829,Stillwater,OK,47885,36.1156306,-97.0585717
830,Binghamton,NY,47875,42.0987125,-75.9125262
831,Rockwall,TX,47696,32.8923464,-96.4066987
832,Monroe,LA,47663,32.5102427,-92.1032411
833,La Mirada,CA,47654,33.9060971,-118.0107092
834,Roseville,MI,47593,42.4972583,-82.9371409
835,Brea,CA,47561,33.9170444,-117.888855
836,Mansfield,OH,47494,40.75839,-82.5154471
837,Ocoee,FL,47459,28.5695186,-81.544117
838,Mentor,OH,47380,41.6664781,-81.3399769
839,Cleveland,TN,47339,35.1595182,-84.8766115
840,Fort Pierce,FL,47332,27.4467056,-80.3256056
841,Oro Valley,AZ,47324,32.4095168,-110.9806463
842,Hattiesburg,MS,47275,31.3271189,-89.2903392
843,East Providence,RI,47150,41.8137116,-71.3700545
844,San Luis Obispo,CA,47104,35.3540209,-120.3757163
845,Little Elm,TX,47078,33.1626194,-96.9375051
846,East Lansing,MI,47049,42.7320307,-84.4721678
847,Winter Garden,FL,47047,28.5656649,-81.5856742
848,Westfield,IN,46990,40.04792895,-86.16580874
849,Prescott Valley,AZ,46985,34.6100243,-112.315721
850,Middletown,CT,46960,41.5623178,-72.6509061
851,Salina,KS,46803,38.8402805,-97.6114237
852,Farmington,NM,46596,36.7291152,-108.205445
853,Beavercreek,OH,46523,39.7092262,-84.0632685
854,Huntington,WV,46508,38.4192496,-82.445154
855,Kyle,TX,46464,29.9892816,-97.877174
856,Attleboro,MA,46445,41.9438129,-71.2806515
857,Charlottesville,VA,46423,38.029306,-78.4766781
858,Strongsville,OH,46354,41.3144733,-81.83511
859,Altamonte Springs,FL,46211,28.6619154,-81.3885899
860,Haltom City,TX,46005,32.7995738,-97.2691817
861,Hackensack,NJ,45903,40.8871438,-74.0410865
862,Prescott,AZ,45811,34.5399962,-112.4687616
863,Huntsville,TX,45801,30.7235263,-95.5507771
864,Goose Creek,SC,45797,32.9961038,-80.0387292
865,Bountiful,UT,45781,40.8894611,-111.8804817
866,Keller,TX,45716,32.9299655,-97.2271249
867,Elmhurst,IL,45649,41.8994745,-87.9403418
868,Urbandale,IA,45565,41.6274552,-93.7380624
869,Littleton,CO,45564,39.613321,-105.016649
870,Morgan Hill,CA,45551,37.130408,-121.6544974
871,Los Banos,CA,45419,37.0592253,-120.8505342
872,Brentwood,TN,45401,36.0325687,-86.7825235
873,Riverton,UT,45377,40.5179761,-111.9393701
874,Sierra Vista,AZ,45347,31.5545973,-110.2997756
875,Alexandria,LA,45229,31.2909782,-92.4616292
876,Sayreville,NJ,45221,40.4635362,-74.3618499
877,Cleveland Heights,OH,45177,41.5200518,-81.556235
878,Cutler Bay,FL,45164,25.5783,-80.3377
879,Fairfield,OH,44912,39.3458953,-84.5605031
880,Wentzville,MO,44893,38.8244136,-90.8683119
881,Burlington,VT,44873,44.4761601,-73.212906
882,Plainfield,IL,44800,41.6086711,-88.2054345
883,York,PA,44767,39.9624624,-76.727707
884,Eagle Mountain,UT,44733,40.3093488,-112.0119825
885,Gallatin,TN,44693,36.3883031,-86.4475898
886,North Lauderdale,FL,44675,26.217305,-80.2258811
887,The Colony,TX,44646,33.0890094,-96.8863922
888,Palm Springs,CA,44579,33.77217945,-116.4952977
889,Fond du Lac,WI,44577,43.7748763,-88.4458033
890,Salem,MA,44514,42.5195292,-70.8967226
891,Moorhead,MN,44478,46.8739081,-96.7538674
892,Mankato,MN,44462,44.1634663,-93.9993505
893,West Lafayette,IN,44454,40.4258686,-86.9080655
894,Wilkes-Barre,PA,44409,41.2464824,-75.8817316
895,Freeport,NY,44396,40.6576071,-73.5835826
896,Rohnert Park,CA,44343,38.3396367,-122.7010984
897,Lombard,IL,44340,41.8864687,-88.0201536
898,Lompoc,CA,44310,34.6391501,-120.4579409
899,El Centro,CA,44240,32.792,-115.5630514
900,Blacksburg,VA,44163,37.2296566,-80.4136767
901,Oakland Park,FL,44095,26.1801443,-80.1372006
902,Greenacres,FL,44094,26.623679,-80.1253213
903,Saginaw,MI,44058,43.4200387,-83.9490365
904,Bremerton,WA,43988,47.5653663,-122.6246836
905,Shakopee,MN,43979,44.7980186,-93.5268986
906,Campbell,CA,43935,37.2870626,-121.9448818
907,Sherman,TX,43887,36.2452294,-101.8858689
908,Altoona,PA,43870,40.518681,-78.394736
909,Pittsfield,MA,43786,42.451302,-73.260018
910,San Bruno,CA,43785,37.6261715,-122.4332435
911,Leominster,MA,43744,42.5267443,-71.7614891
912,Concord,NH,43709,43.207178,-71.537476
913,Linden,NJ,43563,40.6220478,-74.2445902
914,Danville,CA,43537,37.8215929,-121.99996
915,Oakley,CA,43483,37.9974219,-121.7124536
916,Hagerstown,MD,43426,39.6419219,-77.7202641
917,North Miami Beach,FL,43400,25.9331488,-80.1625463
918,Sumter,SC,43342,33.9204354,-80.3414693
919,Huber Heights,OH,43311,39.85902405,-84.11141952
920,Hickory,NC,43309,35.7333312,-81.3442915
921,Clermont,FL,43309,28.5494447,-81.7728543
922,Woonsocket,RI,43261,42.0028761,-71.5147839
923,Ormond Beach,FL,43177,29.2854132,-81.0557921
924,Buffalo Grove,IL,43123,42.1514146,-87.959794
925,Puyallup,WA,43009,47.1849009,-122.29214
926,Jefferson City,MO,42891,38.577359,-92.1724265
927,Coppell,TX,42848,32.9552598,-97.0155703
928,Moline,IL,42831,41.5067003,-90.5151342
929,Edmonds,WA,42802,47.8105738,-122.3774952
930,Spanish Fork,UT,42764,40.1150133,-111.6547774
931,Manassas,VA,42728,38.7509488,-77.4752667
932,Newnan,GA,42673,33.3806716,-84.7996573
933,Beverly,MA,42657,42.5584284,-70.8800491
934,Gainesville,GA,42538,34.2978794,-83.8240663
935,Midland,MI,42518,43.6155825,-84.2472117
936,Danville,VA,42465,36.5859718,-79.3950228
937,Peachtree Corners,GA,42268,33.9701009,-84.2215869
938,Belleville,IL,42216,38.5200504,-89.9839935
939,Rancho Palos Verdes,CA,42207,33.7483311,-118.3707683
940,Lake Worth Beach,FL,42174,26.6159698,-80.0569927
941,Schertz,TX,42089,29.5641617,-98.2695702
942,Coachella,CA,42049,33.68656595,-116.1532775
943,Maplewood,MN,42018,45.0082216,-93.0456985
944,Hollister,CA,41918,36.8524545,-121.4016021
945,Kearny,NJ,41913,40.7684342,-74.1454214
946,Columbia,TN,41879,35.6150716,-87.0352831
947,Fitchburg,MA,41872,42.5903661,-71.8119837
948,Holly Springs,NC,41720,35.6512655,-78.8336218
949,Marlborough,MA,41700,42.3459271,-71.5522874
950,Delaware,OH,41620,40.2986724,-83.067965
951,Marion,IA,41613,41.3144108,-93.1010141
952,Bullhead City,AZ,41523,35.1477774,-114.5682983
953,Brookfield,WI,41439,43.0605671,-88.1064787
954,Waxahachie,TX,41407,32.3944908,-96.8439365
955,Milton,GA,41401,34.1135408,-84.2695169
956,Grove City,OH,41331,39.8814519,-83.0929645
957,Lancaster,TX,41262,32.5920798,-96.7561083
958,Germantown,TN,41210,35.0867577,-89.8100858
959,Friendswood,TX,41158,29.5293998,-95.2010447
960,Hallandale Beach,FL,41091,25.98584285,-80.14118352
961,Bartlett,IL,41065,41.9908485,-88.1850028
962,Reynoldsburg,OH,41054,39.9547861,-82.8121191
963,Covington,KY,41018,39.0836224,-84.508371
964,Pine Bluff,AR,40951,34.2157064,-92.0140402
965,Woburn,MA,40849,42.4792618,-71.1522766
966,Annapolis,MD,40833,38.9786401,-76.492786
967,Lake Oswego,OR,40781,45.4206749,-122.670649
968,Shelton,CT,40771,41.3164856,-73.0931641
969,Westfield,MA,40728,42.1390327,-72.7584859
970,Culver City,CA,40681,34.0211224,-118.396466
971,Hobbs,NM,40618,32.707667,-103.1311314
972,Valley Stream,NY,40602,40.6631362,-73.7056955
973,Lancaster,OH,40590,39.7136754,-82.5993294
974,Weslaco,TX,40575,26.1594305,-97.9907362
975,Duncanville,TX,40535,32.6518004,-96.9083366
976,Cedar Falls,IA,40485,42.5274123,-92.4453179
977,Chelsea,MA,40428,42.3917638,-71.0328284
978,DeKalb,IL,40417,41.8903447,-88.7713953
979,New Berlin,WI,40392,42.976453,-88.1090391
980,Hurst,TX,40316,32.8234621,-97.1705678
981,Indian Trail,NC,40254,35.0768141,-80.6692352
982,Crystal Lake,IL,40198,42.2411344,-88.3161965
983,Brighton,CO,40187,39.983721,-104.8110775
984,Fort Lee,NJ,40130,40.8509333,-73.9701382
985,Lincoln Park,MI,40102,42.2505943,-83.1785361
986,Issaquah,WA,40102,47.5348778,-122.0432974
987,Oviedo,FL,40098,28.6702526,-81.2084941
988,Aventura,FL,40005,25.9564812,-80.1392121
989,Findlay,OH,40003,41.0413873,-83.6503982
990,Hutchinson,KS,40002,38.0608444,-97.9297743
991,Norwich,CT,39932,41.5243537,-72.0759008
992,Florence,SC,39919,34.1984435,-79.7671658
993,Olive Branch,MS,39904,34.9617605,-89.8295315
994,Romeoville,IL,39878,41.6475306,-88.0895061
995,Florence,AL,39803,34.79981,-87.677251
996,Wausau,WI,39802,44.9596017,-89.6298239
997,State College,PA,39756,40.7944504,-77.8616386
998,Carol Stream,IL,39750,41.9125286,-88.1347927
999,Mount Juliet,TN,39711,36.200055,-86.5186054
1000,Plant City,FL,39691,28.01633,-82.1234803
1001,Cape Girardeau,MO,39575,37.3034933,-89.5230357
1002,Dover,DE,39554,39.158168,-75.5243682
1003,Park Ridge,IL,39525,42.0112329,-87.8406031
1004,Amherst Town,MA,39489,42.8263679,-73.9061845
1005,San Gabriel,CA,39465,34.0990733,-118.1085682
1006,Quincy,IL,39442,39.9356016,-91.4098727
1007,Roy,UT,39411,41.1617999,-112.0261903
1008,Bell Gardens,CA,39402,33.9694561,-118.1503953
1009,Streamwood,IL,39393,42.0255827,-88.1784085
1010,Keizer,OR,39357,44.9969,-123.0266267
1011,Wheeling,IL,39221,42.138889,-87.9310944
1012,Grants Pass,OR,39210,42.4393707,-123.3272489
1013,Post Falls,ID,39209,47.7110106,-116.9480877
1014,Westerville,OH,39199,40.126139,-82.9295287
1015,Braintree Town,MA,39117,42.20453615,-71.01817063
1016,Bettendorf,IA,39107,41.5252761,-90.5096386
1017,Royal Palm Beach,FL,39098,26.7017553,-80.22338423
1018,Warren,OH,39097,41.237557,-80.818417
1019,Vestavia Hills,AL,39089,33.4487989,-86.7879492
1020,Cottage Grove,MN,39003,44.8277446,-92.9438218
1021,West Fargo,ND,38993,46.874967,-96.900362
1022,Apache Junction,AZ,38893,33.4150485,-111.549577
1023,Phenix City,AL,38783,32.4709761,-85.0007653
1024,La Vergne,TN,38761,36.0156178,-86.5819394
1025,Lebanon,TN,38592,36.2079779,-86.2910945
1026,Calexico,CA,38553,32.6790572,-115.498703
1027,Spartanburg,SC,38531,34.9498007,-81.9320157
1028,Lynnwood,WA,38530,47.8278656,-122.3053932
1029,Pacifica,CA,38507,37.6138253,-122.4869194
1030,Menomonee Falls,WI,38504,43.1790768,-88.1170784
1031,Rosenberg,TX,38489,29.5571825,-95.8085623
1032,Winter Springs,FL,38475,28.6987064,-81.3054759
1033,Owasso,OK,38468,36.2659698,-95.8548557
1034,Atlantic City,NJ,38430,39.3642852,-74.4229351
1035,East Point,GA,38400,33.6795531,-84.4393724
1036,Urbana,IL,38374,40.1117174,-88.207301
1037,Saratoga Springs,UT,38357,40.3491173,-111.904656
1038,Peachtree City,GA,38341,33.3967829,-84.5957629
1039,Clovis,NM,38244,34.405472,-103.2050709
1040,Holyoke,MA,38164,42.2071434,-72.60765
1041,Hilton Head Island,SC,38074,32.1618488,-80.7512616
1042,La Puente,CA,38058,34.01979,-117.9503677
1043,Hot Springs,AR,38054,34.4929465,-93.06551559
1044,Northglenn,CO,38045,39.9100858,-104.987552
1045,Portage,IN,37948,41.5758708,-87.1761455
1046,Montclair,CA,37920,34.0775104,-117.6897776
1047,Stanton,CA,37902,33.79410005,-117.9951006
1048,Monrovia,CA,37900,34.1483499,-118.0014517
1049,Prattville,AL,37897,32.4640245,-86.4596966
1050,Longview,WA,37880,46.1377048,-122.9344623
1051,Carpentersville,IL,37864,42.1211364,-88.2578582
1052,Adelanto,CA,37858,34.5827699,-117.409215
1053,Pleasant Grove,UT,37804,40.3640349,-111.7386884
1054,Tupelo,MS,37800,34.2576067,-88.7033859
1055,Greenfield,WI,37738,42.9614039,-88.0125865
1056,Rome,GA,37714,34.257038,-85.1646726
1057,La Quinta,CA,37654,33.6654913,-116.2776956
1058,DeLand,FL,37638,29.0283213,-81.3031098
1059,Oregon City,OR,37631,45.3573429,-122.6067583
1060,New Albany,IN,37625,38.2856247,-85.8241312
1061,Riviera Beach,FL,37600,26.784343,-80.0650293
1062,Muskegon,MI,37489,43.2341813,-86.2483921
1063,Leavenworth,KS,37349,39.345184,-94.921703
1064,Hanover Park,IL,37334,41.9994722,-88.1450735
1065,Bartlesville,OK,37289,36.7494864,-95.9782966
1066,Georgetown,KY,37253,38.2097967,-84.5588311
1067,Estero,FL,37207,26.4381474,-81.8067537
1068,Martinez,CA,37143,38.0138934,-122.1338674
1069,Hilliard,OH,37142,40.033814,-83.1596108
1070,Rock Island,IL,37041,41.4411786,-90.5766144
1071,Tucker,GA,37002,33.85162905,-84.22374317
1072,Richfield,MN,36981,44.8766431,-93.2877877
1073,Wildomar,CA,36917,33.5939372,-117.2414989
1074,Muskogee,OK,36867,35.7478769,-95.3696909
1075,Kearns metro township,UT,36813,None,None
1076,Franklin,WI,36808,42.888627,-88.0384195
1077,Upper Arlington,OH,36765,39.9945084,-83.0624078
1078,Lewiston,ME,36746,44.100351,-70.2147764
1079,Farmers Branch,TX,36663,32.9265137,-96.8961151
1080,Merrillville,IN,36591,41.4828144,-87.3328139
1081,Oak Creek,WI,36481,42.8858503,-87.8631362
1082,Temple City,CA,36435,34.1082994,-118.0577568
1083,Beloit,WI,36435,42.5083272,-89.031784
1084,Claremont,CA,36349,34.0966764,-117.7197785
1085,Moorpark,CA,36260,34.285558,-118.8820414
1086,Copperas Cove,TX,36258,31.124062,-97.9030785
1087,Sun Prairie,WI,36225,43.1834579,-89.2134359
1088,Roseville,MN,36187,45.0060767,-93.1566107
1089,Texarkana,TX,36176,33.44667445,-94.07714831
1090,San Luis,AZ,36175,32.4934395,-114.7737551
1091,Midvale,UT,36125,40.6149174,-111.9106607
1092,Myrtle Beach,SC,36110,33.6956461,-78.8900409
1093,Lima,OH,36105,40.7399785,-84.105006
1094,Dunedin,FL,36027,28.0197404,-82.7717684
1095,Lauderdale Lakes,FL,36019,26.1667184,-80.2085565
1096,El Mirage,AZ,35993,33.6130338,-112.3244866
1097,Marion,OH,35961,40.5886259,-83.1287349
1098,Tooele,UT,35928,40.4062872,-113.1966394
1099,Richmond,IN,35851,39.8286897,-84.8898521
1100,Calumet City,IL,35848,41.616016,-87.5295837
1101,Greer,SC,35797,34.9381361,-82.2272119
1102,Inver Grove Heights,MN,35790,44.8479039,-93.0428119
1103,Norristown,PA,35770,40.121497,-75.3399048
1104,Lake Stevens,WA,35756,48.0197794,-122.0660914
1105,Gahanna,OH,35715,40.0195625,-82.8791363
1106,West Hollywood,CA,35708,34.0923014,-118.3692894
1107,Addison,IL,35670,41.931696,-87.9889556
1108,Salisbury,NC,35583,35.6709727,-80.4742261
1109,Midlothian,TX,35580,32.482361,-96.9944489
1110,North Ridgeville,OH,35526,41.3894905,-82.0190321
1111,Manhattan Beach,CA,35466,33.8915985,-118.3951241
1112,Brunswick,OH,35445,41.2456819,-81.8275398
1113,Wildwood,MO,35428,38.5806948,-90.6314374
1114,Torrington,CT,35412,41.8006523,-73.1212214
1115,Hinesville,GA,35397,31.8477298,-81.5960354
1116,College Park,MD,35379,38.99203005,-76.9461029
1117,Springville,UT,35379,40.1652447,-111.6114726
1118,Watertown Town,MA,35378,42.3678613,-71.1874398
1119,San Juan,TX,35349,26.1892409,-98.1552872
1120,Wenatchee,WA,35348,47.4234599,-120.3103494
1121,Mount Vernon,WA,35297,48.4200462,-122.32642
1122,La Porte,TX,35295,29.6657838,-95.0193729
1123,Cedar City,UT,35254,37.6774238,-113.061827
1124,San Juan Capistrano,CA,35214,33.5016932,-117.6625509
1125,Northbrook,IL,35144,42.128704,-87.8265089
1126,Woodstock,GA,35105,34.1014112,-84.5192192
1127,Benton,AR,35078,36.3456186,-94.2670404
1128,Plainfield,IN,35005,39.7042123,-86.3994387
1129,Randolph Town,MA,34955,42.1613358,-71.0429353
1130,University Place,WA,34954,47.2368034,-122.552067
1131,University City,MO,34935,38.6569083,-90.3103443
1132,Fair Lawn,NJ,34916,40.9397796,-74.1312504
1133,Long Beach,NY,34905,40.5885508,-73.6582631
1134,Rexburg,ID,34894,43.8235163,-111.7870222
1135,Parkland,FL,34875,26.32540565,-80.27393698
1136,Richmond,KY,34838,37.7478572,-84.2946539
1137,Mason,OH,34836,39.3600586,-84.309939
1138,Meridian,MS,34832,32.3643098,-88.703656
1139,Goshen,IN,34815,41.5824086,-85.834366
1140,Douglasville,GA,34807,33.7514966,-84.7477136
1141,San Dimas,CA,34805,34.085315,-117.8408327
1142,Oswego,IL,34711,41.6834778,-88.3525714
1143,Del Rio,TX,34673,29.3655405,-100.894698
1144,Socorro,TX,34598,31.654557,-106.3033146
1145,Monroe,NC,34575,34.9854275,-80.5495112
1146,Fuquay-Varina,NC,34571,35.5843849,-78.7998691
1147,Pleasant Hill,CA,34550,37.9479786,-122.0607963
1148,Butte-Silver Bow,MT,34530,46.0131505,-112.536508
1149,Cookeville,TN,34516,36.1623886,-85.4997057
1150,Fairborn,OH,34515,39.8208998,-84.0193858
1151,Crown Point,IN,34511,41.4169806,-87.3653136
1152,Sahuarita,AZ,34467,31.9575818,-110.955646
1153,Stow,OH,34440,41.1596261,-81.4406258
1154,McMinnville,OR,34422,45.2100367,-123.194463
1155,Manitowoc,WI,34407,44.0886059,-87.6575841
1156,Deer Park,TX,34343,29.7052284,-95.1238204
1157,Cooper City,FL,34300,26.0474608,-80.27384418
1158,Dalton,GA,34294,34.7691867,-84.9702475
1159,Eastpointe,MI,34246,42.4683698,-82.9554746
1160,Westlake,OH,34218,41.4553232,-81.9179174
1161,Holland,MI,34211,42.7876022,-86.1090828
1162,Lewiston,ID,34185,46.4195913,-117.0216144
1163,Valparaiso,IN,34150,41.4730948,-87.0611412
1164,Woodridge,IL,34139,41.7563344,-88.045559
1165,Lufkin,TX,34085,31.3386242,-94.7288558
1166,Gadsden,AL,34019,34.010929,-85.9989596
1167,Walla Walla,WA,33955,46.0667277,-118.3393456
1168,Leawood,KS,33891,38.966673,-94.6169012
1169,Redmond,OR,33787,44.2726203,-121.1739212
1170,Kearney,NE,33734,40.4906216,-98.9472344
1171,Brooklyn Center,MN,33685,45.0748543,-93.3296296
1172,Foster City,CA,33685,37.5600336,-122.2688522
1173,Menlo Park,CA,33660,37.4519671,-122.1779927
1174,Englewood,CO,33580,39.6482059,-104.9879641
1175,American Fork,UT,33580,40.3768064,-111.7959146
1176,Kiryas Joel,NY,33563,41.3420393,-74.1679241
1177,Cottonwood Heights,UT,33551,40.613474,-111.8256464
1178,Bell,CA,33537,33.9747806,-118.1866361
1179,Bethel Park,PA,33497,40.3275697,-80.0394977
1180,Los Gatos,CA,33461,37.226611,-121.9746797
1181,Gillette,WY,33458,44.290635,-105.501876
1182,Petersburg,VA,33428,37.227928,-77.4019268
1183,Canton,GA,33382,34.2367621,-84.4907621
1184,Alabaster,AL,33381,33.2442813,-86.8163773
1185,Houma,LA,33276,29.5957696,-90.7195348
1186,Windsor,CO,33269,40.4753755,-104.9156269
1187,Franklin Town,MA,33227,42.08853535,-71.40153163
1188,Statesboro,GA,33209,32.4490141,-81.7832912
1189,Glendale Heights,IL,33156,41.919522,-88.07663651
1190,Harker Heights,TX,33125,31.0746347,-97.6590473
1191,Kennesaw,GA,33124,34.0234337,-84.6154897
1192,Dana Point,CA,33111,33.4669721,-117.6981075
1193,St. Charles,IL,33045,41.9139808,-88.3128183
1194,Goldsboro,NC,33037,35.3848841,-77.9927651
1195,Spring Valley,NY,33022,41.1130231,-74.0437839
1196,Kaysville,UT,32948,41.0349847,-111.9383931
1197,Kingman,AZ,32869,35.189443,-114.0530065
1198,Des Moines,WA,32838,47.398829,-122.3099093
1199,Sherwood,AR,32809,34.8150907,-92.2243153
1200,Pullman,WA,32806,46.7304268,-117.173895
1201,Cibolo,TX,32805,29.5707831,-98.2330927
1202,Salisbury,MD,32798,38.366027,-75.6009964
1203,Goleta,CA,32781,34.4358295,-119.8276389
1204,Dover,NH,32774,43.1981117,-70.8739761
1205,Panama City,FL,32757,30.1600827,-85.6545729
1206,Chester,PA,32689,39.849557,-75.3557458
1207,Andover,MN,32669,45.2332985,-93.2913405
1208,Elk Grove Village,IL,32664,42.0041236,-87.9706457
1209,Beverly Hills,CA,32646,34.0696501,-118.3963062
1210,Fairbanks,AK,32619,64.8289745,-147.6699169
1211,Garfield,NJ,32606,40.8814882,-74.113198
1212,Savage,MN,32599,44.7779041,-93.3356204
1213,Bay City,MI,32560,43.5944677,-83.8888648
1214,Rochester,NH,32524,43.3050631,-70.9753629
1215,Desert Hot Springs,CA,32510,33.961124,-116.5016784
1216,Helena,MT,32362,46.5927425,-112.036277
1217,Wheat Ridge,CO,32344,39.766098,-105.0772063
1218,Syracuse,UT,32338,41.0895938,-112.0638903
1219,O'Fallon,IL,32334,38.5922715,-89.9112124
1220,North Olmsted,OH,32324,41.4156025,-81.9234726
1221,Seaside,CA,32308,36.62593,-121.8169383
1222,Carlsbad,NM,32248,32.4257456,-104.2376121
1223,Juneau city and,AK,32195,58.3019496,-134.419734
1224,Nacogdoches,TX,32181,31.5970503,-94.5927451
1225,Massillon,OH,32142,40.7965119,-81.5231597
1226,Rome,NY,32115,43.2128473,-75.4557304
1227,San Pablo,CA,32050,37.9621457,-122.3455263
1228,Michigan City,IN,32015,41.7075394,-86.8950297
1229,Florence,KY,31924,38.9989499,-84.6266111
1230,Holladay,UT,31903,40.6688363,-111.8246557
1231,Clearfield,UT,31894,41.1134756,-112.0244382
1232,Duluth,GA,31892,34.0028569,-84.1441046
1233,Ithaca,NY,31845,42.4396039,-76.4968019
1234,Maryville,TN,31815,35.7564719,-83.9704593
1235,Aiken,SC,31805,33.5598586,-81.721952
1236,Atwater,CA,31800,37.3477174,-120.609084
1237,Lawndale,CA,31775,33.8885217,-118.3531991
1238,Bangor,ME,31765,44.8011821,-68.7778138
1239,Dania Beach,FL,31701,26.0524224,-80.143929
1240,Long Branch,NJ,31687,40.3042778,-73.9923596
1241,West Bend,WI,31681,43.4252776,-88.1834277
1242,Pekin,IL,31645,40.5689849,-89.650105
1243,Port Chester,NY,31581,41.0017643,-73.6656834
1244,Los Altos,CA,31577,37.3790629,-122.116578
1245,Mundelein,IL,31559,42.263079,-88.0039653
1246,El Paso de Robles (Paso Robles),CA,31553,35.6389902,-120.6860902
1247,Cornelius,NC,31520,35.481705,-80.8590006
1248,Naugatuck,CT,31510,41.4860186,-73.0509432
1249,Poughkeepsie,NY,31502,41.7065539,-73.9283672
1250,Jackson,MI,31489,42.2416466,-84.425589
1251,Elizabethtown,KY,31433,37.693952,-85.8591285
1252,Oak Ridge,TN,31410,36.0103562,-84.2696449
1253,Alamogordo,NM,31361,32.9046474,-105.941835
1254,SeaTac,WA,31325,47.4449086,-122.283084
1255,Laguna Hills,CA,31324,33.5948758,-117.6882067
1256,La Verne,CA,31313,34.1008426,-117.7678355
1257,Laramie,WY,31313,41.311367,-105.591101
1258,Garner,NC,31306,35.7112642,-78.6141709
1259,Newark,DE,31296,39.6775927,-75.7630866
1260,Shawnee,OK,31290,35.3272928,-96.9253004
1261,Cleburne,TX,31286,32.3476438,-97.3866837
1262,Southlake,TX,31262,32.9412363,-97.1341783
1263,Burlingame,CA,31251,37.5841026,-122.366082
1264,North Royalton,OH,31225,41.3136644,-81.7245739
1265,Northport,AL,31117,33.2292976,-87.5771286
1266,Ballwin,MO,31112,38.5936028,-90.5385549
1267,Nicholasville,KY,31103,37.8806341,-84.5729961
1268,New Bern,NC,31080,35.1084931,-77.0441143
1269,Opelika,AL,31073,32.6454116,-85.3782795
1270,Saratoga,CA,31045,37.2638324,-122.0230146
1271,Princeton,NJ,30968,40.34833555,-74.66842306
1272,LaGrange,GA,30967,33.039291,-85.0313269
1273,Niles,IL,30917,42.0289319,-87.8122348
1274,Eagle,ID,30917,43.6954424,-116.3540138
1275,Westfield,NJ,30900,40.65286,-74.35026487
1276,Weatherford,TX,30883,32.7589648,-97.7970748
1277,Prosper,TX,30866,33.2385763,-96.7866058
1278,Zionsville,IN,30852,39.950724,-86.2616968
1279,Hopkinsville,KY,30839,36.8657651,-87.4889532
1280,Lafayette,CO,30801,39.9935959,-105.0897058
1281,San Carlos,CA,30801,37.504936,-122.261823
1282,North Attleborough Town,MA,30787,None,None
1283,Gurnee,IL,30682,42.3702996,-87.9020186
1284,Santa Paula,CA,30667,34.3541659,-119.0592705
1285,Bowling Green,OH,30624,41.3747744,-83.6513229
1286,Erie,CO,30580,40.0146297,-105.1039511
1287,Morristown,TN,30567,36.2139814,-83.2948923
1288,North Tonawanda,NY,30460,43.0407742,-78.8660527
1289,New Smyrna Beach,FL,30417,29.0294202,-81.02083424
1290,Lawrenceville,GA,30414,33.9562149,-83.9879625
1291,Miami Lakes,FL,30392,25.91162125,-80.3212748
1292,Middletown,NY,30366,40.8397222,-73.8316667
1293,Bella Vista,AR,30308,36.4678036,-94.2669727
1294,Liberty,MO,30284,39.246479,-94.419079
1295,Sanford,NC,30278,35.4798757,-79.1802994
1296,Highland Park,IL,30181,42.1816919,-87.8003438
1297,Chamblee,GA,30174,33.892176,-84.2988296
1298,North Chicago,IL,30133,42.325578,-87.8411818
1299,Monterey,CA,30040,36.2231079,-121.3877428
1300,Southgate,MI,30024,42.2037103,-83.2067556
1301,Morrisville,NC,30010,35.83453565,-78.82281296
1302,Galesburg,IL,30002,40.9479779,-90.3705842
1303,Laurel,MD,29959,39.1044123,-76.8669233
1304,Central,LA,29953,30.5542266,-91.0367175
1305,Raytown,MO,29940,39.0168425,-94.4630468
1306,East Palo Alto,CA,29933,37.4688273,-122.141075
1307,Fountain,CO,29909,38.682219,-104.7008056
1308,Hazleton,PA,29857,40.9646867,-75.9852789
1309,Melrose,MA,29756,42.4564323,-71.064182
1310,Gloucester,MA,29750,42.6159286,-70.6619888
1311,Atascadero,CA,29737,35.4894169,-120.6707255
1312,Garfield Heights,OH,29701,41.4169974,-81.6059581
1313,Rahway,NJ,29694,40.6081591,-74.2776468
1314,Winter Park,FL,29691,28.5977707,-81.3510264
1315,Algonquin,IL,29678,42.1655801,-88.2942493
1316,Hobart,IN,29669,41.5322592,-87.2550353
1317,Burton,MI,29628,42.9897333,-83.6335032
1318,Parkersburg,WV,29618,39.2699565,-81.5506916
1319,Fitchburg,WI,29592,43.0020919,-89.423817
1320,Fridley,MN,29551,45.0838291,-93.2590388
1321,Schererville,IN,29550,41.4789246,-87.4547605
1322,Oak Park,MI,29530,42.4595317,-83.1821445
1323,Paragould,AR,29521,36.0584021,-90.4973286
1324,Banning,CA,29515,33.9255685,-116.875289
1325,Matthews,NC,29507,35.1159532,-80.7224386
1326,Jacksonville,AR,29475,34.8662005,-92.1101458
1327,Northampton,MA,29473,42.3178989,-72.6311006
1328,Kirkwood,MO,29466,38.5800713,-90.4069177
1329,McDonough,GA,29448,33.4473361,-84.1468616
1330,Greenville,MS,29441,33.4000633,-91.0551312
1331,Seguin,TX,29426,29.5688411,-97.9647269
1332,Suisun City,CA,29415,38.24582825,-121.972234
1333,Magna metro township,UT,29318,None,None
1334,Burbank,IL,29316,41.741406,-87.7686078
1335,Shaker Heights,OH,29311,41.4739419,-81.5370671
1336,Texarkana,AR,29289,33.4254259,-94.0430937
1337,Williston,ND,29281,48.1465457,-103.621814
1338,Englewood,NJ,29268,40.8928771,-73.9726381
1339,Anderson,SC,29170,34.5068601,-82.6506264
1340,Morgantown,WV,29159,39.6296809,-79.9559437
1341,Russellville,AR,29144,35.2784173,-93.1337856
1342,Lathrop,CA,29121,37.8227046,-121.27661
1343,Danville,IL,29097,40.125222,-87.6304614
1344,Brownsburg,IN,29096,39.8433769,-86.3977736
1345,Stockbridge,GA,29010,33.5442781,-84.2338093
1346,Port Huron,MI,28978,42.9815877,-82.440466
1347,Lansing,IL,28941,41.5662245,-87.5381569
1348,Casselberry,FL,28932,28.6714702,-81.3382005
1349,Lake in the Hills,IL,28929,42.1816908,-88.3303618
1350,Enterprise,AL,28864,31.3151708,-85.8552161
1351,Newburgh,NY,28849,41.5034271,-74.0104179
1352,Jeffersontown,KY,28824,38.1942356,-85.5644033
1353,Glen Ellyn,IL,28810,41.8775293,-88.0670118
1354,Bixby,OK,28801,35.9420431,-95.8833235
1355,West Springfield Town,MA,28793,42.1062862,-72.6200902
1356,Bluffton,SC,28734,32.2084605,-80.9408403
1357,Washington,UT,28721,37.2393471,-113.525776
1358,Agawam Town,MA,28641,42.0885286,-72.6260704
1359,Independence,KY,28632,38.9431183,-84.544109
1360,Frankfort,KY,28631,38.2009055,-84.8732836
1361,Slidell,LA,28630,30.2751945,-89.7811745
1362,Monroeville,PA,28625,40.4211798,-79.7881025
1363,Harrison,NY,28621,41.0195135,-73.71116375
1364,Jamestown,NY,28579,42.0965167,-79.2380322
1365,Allen Park,MI,28561,42.2595071,-83.2107671
1366,Bridgewater Town,MA,28447,42.028876,-70.95268417
1367,Aberdeen,SD,28442,45.4649805,-98.487813
1368,Walnut,CA,28419,33.7085883,-117.7926096
1369,New Iberia,LA,28413,30.0035365,-91.8187285
1370,Madison Heights,MI,28398,42.4858692,-83.1052028
1371,Eagle Pass,TX,28383,28.7099337,-100.493813
1372,Bergenfield,NJ,28347,40.9275987,-73.9973608
1373,Hamtramck,MI,28335,42.3928151,-83.0496438
1374,Greenville,TX,28322,33.1384488,-96.1108066
1375,Oakdale,MN,28270,44.985624,-92.9645794
1376,Glen Cove,NY,28259,40.8641845,-73.6319174
1377,Maryland Heights,MO,28255,38.7150511,-90.435999
1378,Statesville,NC,28247,35.7826363,-80.8872959
1379,Marion,IN,28246,40.5583739,-85.6591442
1380,Belmont,CA,28207,37.5164926,-122.2941914
1381,Saratoga Springs,NY,28167,43.0821793,-73.7853915
1382,Lake Jackson,TX,28166,29.0338575,-95.4343859
1383,Maple Valley,WA,28131,47.3664231,-122.0437127
1384,Hutto,TX,28091,30.5427638,-97.5468898
1385,Wilmette,IL,28037,42.0757315,-87.7193768
1386,Garden City,KS,28012,37.9716898,-100.8726618
1387,Winchester,VA,28008,39.1852184,-78.1652404
1388,Fredericksburg,VA,27995,38.3031837,-77.4605399
1389,Easton,PA,27990,40.6916081,-75.2099866
1390,Henderson,KY,27931,37.8367513,-87.5907631
1391,Ridgecrest,CA,27921,35.6225064,-117.6699414
1392,Clinton,MS,27909,32.3410552,-90.3215983
1393,Chaska,MN,27891,44.7894072,-93.6021791
1394,Tualatin,OR,27883,45.3838546,-122.766351
1395,Ramsey,MN,27847,45.0165728,-93.0949501
1396,Converse,TX,27808,29.5180081,-98.3161241
1397,Huntley,IL,27795,42.1722503,-88.42692
1398,Kent,OH,27779,41.1536674,-81.357886
1399,Madison,MS,27764,32.4618086,-90.1153638
1400,Dodge City,KS,27739,37.7527982,-100.0170787
1401,Millville,NJ,27726,39.4020593,-75.0393368
1402,Daphne,AL,27723,30.6035255,-87.9036047
1403,Williamsport,PA,27708,41.2493292,-77.0027671
1404,Granite City,IL,27697,38.7014389,-90.1487199
1405,Rockledge,FL,27685,28.3137515,-80.7242189
1406,Mount Pleasant,WI,27667,42.7292465,-87.851473
1407,Balch Springs,TX,27630,32.7287413,-96.6227714
1408,Prior Lake,MN,27621,44.7133271,-93.4226873
1409,Lemon Grove,CA,27620,32.7425516,-117.0314172
1410,Ossining,NY,27620,41.1609095,-73.87816188
1411,New London,CT,27603,41.3556187,-72.0997804
1412,Marshalltown,IA,27570,42.0442545,-92.9123388
1413,Crestview,FL,27545,30.7621326,-86.5705084
1414,Wasco,CA,27516,35.5941238,-119.3409457
1415,Green,OH,27433,40.9468077,-81.4670631
1416,Chicago Heights,IL,27427,41.5062834,-87.6357079
1417,Twentynine Palms,CA,27407,34.1356915,-116.0543506
1418,West Linn,OR,27367,45.3656761,-122.6123141
1419,Neenah,WI,27345,44.1858193,-88.462609
1420,Oak Forest,IL,27314,41.6028116,-87.7439384
1421,Garden City,MI,27295,42.3255929,-83.3310422
1422,New Lenox,IL,27257,41.5119761,-87.9656098
1423,Mason City,IA,27244,43.1535728,-93.2010367
1424,Round Lake Beach,IL,27235,42.3716881,-88.0900806
1425,Bristol,TN,27202,36.5945034,-82.1885212
1426,Alvin,TX,27184,29.4238472,-95.2441009
1427,Fremont,NE,27162,41.4338363,-96.4960449
1428,Carrollton,GA,27146,33.5801103,-85.0766113
1429,McHenry,IL,27136,42.3294391,-88.4605713
1430,Thomasville,NC,27136,35.8831786,-80.081817
1431,Haines City,FL,27135,28.126625,-81.63869766
1432,Plum,PA,27112,40.5003457,-79.7494911
1433,Lindenhurst,NY,27111,40.6867667,-73.3734547
1434,Sachse,TX,27106,32.9762327,-96.5952703
1435,Gladstone,MO,27081,39.2039095,-94.5510237
1436,Union City,GA,27047,33.5870558,-84.5424299
1437,Benicia,CA,27041,38.049365,-122.1585777
1438,Lemoore,CA,27035,36.3006495,-119.7827122
1439,Pearl,MS,27034,32.2735792,-90.127881
1440,Leesburg,FL,27032,28.810823,-81.8778582
1441,Asheboro,NC,26974,35.7079146,-79.8136446
1442,Palm Springs,FL,26968,26.6359009,-80.0961538
1443,Shoreview,MN,26930,45.0722056,-93.1282878
1444,South Pasadena,CA,26897,34.1133062,-118.1478291
1445,Wheeling,WV,26896,40.0642004,-80.72177295
1446,Key West,FL,26890,24.5625566,-81.7724368
1447,Vernon Hills,IL,26855,42.2204892,-87.9803604
1448,Auburn,NY,26798,42.9320202,-76.5672029
1449,Wooster,OH,26752,40.7980976,-81.9397733
1450,Horn Lake,MS,26745,34.9553719,-90.0348139
1451,Lebanon,PA,26729,40.3429683,-76.4233816
1452,Bridgeton,NJ,26696,39.427337,-75.2340768
1453,Superior,WI,26694,46.66546425,-92.10105352
1454,Clayton,NC,26676,35.650711,-78.4563914
1455,Temple Terrace,FL,26639,28.0352964,-82.3892596
1456,Wilsonville,OR,26630,45.3099218,-122.7681602
1457,Sanger,CA,26626,36.708006,-119.5559652
1458,Paramus,NJ,26606,40.9452911,-74.0735899
1459,Cabot,AR,26560,34.974532,-92.0165336
1460,South Portland,ME,26548,43.6414716,-70.2408811
1461,Mint Hill,NC,26538,35.1735388,-80.6570377
1462,Kernersville,NC,26513,36.1198589,-80.0736533
1463,Eureka,CA,26513,40.7906871,-124.1673746
1464,Paducah,KY,26508,37.0833893,-88.6000478
1465,West Melbourne,FL,26505,28.06929805,-80.65476623
1466,Camas,WA,26468,45.5911103,-122.4122248
1467,Brawley,CA,26428,33.018515,-115.5159425
1468,Owatonna,MN,26402,44.0839937,-93.2261076
1469,Elmira,NY,26361,42.0897965,-76.8077338
1470,Homewood,AL,26323,33.4717732,-86.8008228
1471,Troy,OH,26320,40.0394982,-84.2032767
1472,South Salt Lake,UT,26312,40.7074741,-111.8882709
1473,East Chicago,IN,26258,41.6397857,-87.4548466
1474,Windsor,CA,26247,38.5471327,-122.8163802
1475,Big Spring,TX,26225,32.250398,-101.4787356
1476,Trussville,AL,26216,33.6196266,-86.6084342
1477,Imperial Beach,CA,26186,32.5839444,-117.1130849
1478,Austin,MN,26175,43.6680928,-92.9744896
1479,Forest Grove,OR,26162,45.5197452,-123.1114405
1480,Lodi,NJ,26159,40.8823215,-74.0831971
1481,Lockport,IL,26157,41.5894753,-88.057837
1482,Grandview,MO,26150,38.8898478,-94.5313816
1483,Jenks,OK,26125,36.0228734,-95.9683278
1484,Batavia,IL,26096,41.8500284,-88.3125738
1485,Colleyville,TX,26075,32.8809603,-97.155012
1486,Hercules,CA,26025,38.0171441,-122.2885808
1487,Inkster,MI,26006,42.2942045,-83.3099303
1488,Chanhassen,MN,25994,44.8618403,-93.5307207
1489,Winona,MN,25992,43.9582272,-91.7807784
1490,Woodburn,OR,25991,45.143731,-122.8553725
1491,El Cerrito,CA,25973,33.8410146,-117.5207978
1492,Bessemer,AL,25970,33.4017766,-86.954437
1493,Norco,CA,25950,33.9323307,-117.5508901
1494,Medina,OH,25947,41.1383878,-81.8637474
1495,Ridgewood,NJ,25937,40.9796683,-74.1194403
1496,Rockville Centre,NY,25925,40.6574186,-73.6450664
1497,Oxford,MS,25896,34.3663773,-89.5187664
1498,Elk River,MN,25869,45.3038538,-93.5671825
1499,Rosemount,MN,25808,44.7391873,-93.12611
1500,Staunton,VA,25800,38.1495947,-79.072557
1501,Derby,KS,25787,37.5455735,-97.2689331
1502,Dickinson,ND,25771,46.8791756,-102.7896242
1503,Mercer Island,WA,25767,47.5602073,-122.2201423
1504,Athens,AL,25686,34.8045487,-86.9711698
1505,Cliffside Park,NJ,25671,40.8214894,-73.9876388
1506,Alton,IL,25634,38.8908583,-90.1843091
1507,Florence,AZ,25610,33.059919,-111.4303822
1508,Stevens Point,WI,25607,44.5229223,-89.574111
1509,Pooler,GA,25601,32.1158983,-81.2495131
1510,West Chicago,IL,25570,41.8847507,-88.2039607
1511,Galt,CA,25527,38.2546373,-121.2999485
1512,Woodstock,IL,25515,42.3147529,-88.4474302
1513,Tumwater,WA,25467,47.0080655,-122.910368
1514,Moscow,ID,25466,46.7323875,-117.0001651
1515,Moses Lake,WA,25458,47.1301417,-119.2780771
1516,Hazelwood,MO,25455,38.7761446,-90.3715909
1517,Newberg,OR,25451,45.300347,-122.972751
1518,Ottumwa,IA,25451,41.0200145,-92.4112963
1519,Marysville,OH,25444,40.2364486,-83.3671432
1520,Barstow,CA,25419,34.8957684,-117.0172077
1521,Xenia,OH,25413,39.6847822,-83.9296526
1522,Venice,FL,25404,27.0999188,-82.4543597
1523,Lafayette,CA,25386,37.8857582,-122.1180201
1524,Salem,VA,25374,37.293378,-80.054667
1525,Kingsville,TX,25339,27.5158689,-97.856109
1526,Avon Lake,OH,25333,41.510033,-82.0185895
1527,Edwardsville,IL,25319,38.8114364,-89.953157
1528,Peekskill,NY,25309,41.289811,-73.9204922
1529,Caledonia,WI,25293,42.8077958,-87.924248
1530,Carteret,NJ,25291,40.596106,-74.237292
1531,De Pere,WI,25288,44.4493584,-88.0599986
1532,Belvidere,IL,25259,42.2579991,-88.841734
1533,Fort Mill,SC,25255,35.0073697,-80.9450759
1534,Newport,RI,25244,41.5524614,-71.27037833
1535,Walker,MI,25239,43.005597,-85.7741906
1536,Seal Beach,CA,25212,33.7423967,-118.1055926
1537,Morton Grove,IL,25195,42.0405857,-87.7825696
1538,Reedley,CA,25195,36.5963395,-119.4504029
1539,Franklin,IN,25163,39.4806056,-86.0549863
1540,Sebastian,FL,25160,27.816415,-80.4706078
1541,Hastings,NE,25144,40.5861322,-98.3898883
1542,Norton Shores,MI,25144,43.1689044,-86.2639461
1543,Sugar Hill,GA,25139,34.1064895,-84.0335197
1544,Tarpon Springs,FL,25130,28.14808295,-82.7438016
1545,Barberton,OH,25127,41.012833,-81.6051221
1546,Romulus,MI,25123,42.2222614,-83.3965995
1547,Brandon,MS,25113,32.2731475,-89.9868058
1548,Maywood,CA,25095,33.9866807,-118.185349
1549,Muskego,WI,25079,42.905848,-88.1389779
1550,Perrysburg,OH,25063,41.5571178,-83.6279321
1551,Mequon,WI,25054,43.2219088,-87.9822969
1552,University Park,TX,25035,32.851034,-96.79257966
1553,Sandusky,OH,24987,41.4561002,-82.7115813
1554,Avon,OH,24975,41.4516512,-82.0350598
1555,Wyandotte,MI,24957,42.200409,-83.1506436
1556,Norfolk,NE,24886,42.0283379,-97.4169964
1557,Decatur,GA,24883,33.7737582,-84.296069
1558,Riverbank,CA,24854,37.7360396,-120.9354895
1559,San Benito,TX,24848,26.1326237,-97.630791
1560,Greenbelt,MD,24835,38.9933654,-76.88333238
1561,Corsicana,TX,24827,32.091299,-96.4646821
1562,Loma Linda,CA,24797,34.075626,-117.2520478
1563,Ardmore,OK,24787,34.1742611,-97.1436254
1564,White Bear Lake,MN,24781,45.0838098,-93.0069304
1565,Mauldin,SC,24764,34.77873,-82.310119
1566,Bainbridge Island,WA,24758,47.6475683,-122.5460292
1567,Soledad,CA,24745,36.426921,-121.3271861
1568,Zanesville,OH,24739,39.9403453,-82.0131924
1569,Fort Dodge,IA,24728,42.4974694,-94.1680158
1570,Melrose Park,IL,24682,41.900299,-87.8569745
1571,Selma,CA,24655,36.5707838,-119.6120765
1572,Zion,IL,24641,42.4461322,-87.8328505
1573,Dinuba,CA,24638,36.5432837,-119.3870656
1574,Farmington,UT,24616,40.9804423,-111.8874688
1575,Herndon,VA,24611,38.9695316,-77.3859479
1576,Kalispell,MT,24602,48.202158,-114.315321
1577,Starkville,MS,24594,33.4503998,-88.8183872
1578,Watertown,NY,24592,43.9747838,-75.9107565
1579,Oak Harbor,WA,24561,48.2931559,-122.6432245
1580,Kuna,ID,24553,43.4918307,-116.420122
1581,Denison,TX,24546,33.7556593,-96.536658
1582,Collinsville,IL,24510,38.6703267,-89.9845476
1583,Homer Glen,IL,24508,41.6000318,-87.9381112
1584,West Memphis,AR,24496,35.1464797,-90.1845388
1585,Benbrook,TX,24472,32.673188,-97.4605759
1586,Pelham,AL,24458,33.285669,-86.8099884
1587,Clinton,IA,24425,41.9054695,-90.5599971
1588,Faribault,MN,24423,43.6647961,-93.9510501
1589,Paris,TX,24422,33.6617962,-95.555513
1590,Elmwood Park,IL,24414,41.9205931,-87.8160169
1591,Athens,OH,24402,39.3289242,-82.1012479
1592,North Augusta,SC,24396,33.52085,-81.96696923
1593,Waukee,IA,24383,41.6118485,-93.8845129
1594,Westmont,IL,24381,41.7950525,-87.9751964
1595,Riverside,OH,24378,39.7793976,-84.1246358
1596,Papillion,NE,24338,41.1544433,-96.0422378
1597,Ponca City,OK,24309,36.703647,-97.081898
1598,Palmetto Bay,FL,24301,25.6217715,-80.3247748
1599,Auburn Hills,MI,24297,42.6875323,-83.2341028
1600,South Plainfield,NJ,24291,40.5792701,-74.4115401
1601,Kerrville,TX,24260,30.0474688,-99.1400207
1602,Mandan,ND,24230,46.826415,-100.889704
1603,Ridgeland,MS,24221,32.4284761,-90.1323087
1604,Centerville,OH,24220,39.6283928,-84.1593818
1605,Solon,OH,24165,41.3897764,-81.4412259
1606,Lisle,IL,24129,41.801159,-88.0747687
1607,Fairfax,VA,24129,38.8462236,-77.3063733
1608,Kankakee,IL,24127,41.1253903,-87.848682
1609,Rolling Meadows,IL,24114,42.0841936,-88.0131275
1610,Johnston,IA,24095,41.6731523,-93.6973395
1611,Emporia,KS,24092,38.4040054,-96.181623
1612,Columbus,NE,24088,41.4292988,-97.3581439
1613,Happy Valley,OR,24070,45.428679,-122.497174
1614,Saginaw,TX,24029,32.8601275,-97.3639068
1615,Belton,MO,24001,38.8108097,-94.5313502
1616,Kingston,NY,23997,41.9287812,-74.0023702
1617,Wadsworth,OH,23979,41.0256101,-81.7298519
1618,San Fernando,CA,23953,34.28497,-118.437652
1619,Auburn,ME,23944,44.0978509,-70.2311655
1620,Webster Groves,MO,23943,38.592339,-90.3564329
1621,Willoughby,OH,23943,41.6397696,-81.4065011
1622,Burlington,IA,23931,40.8075391,-91.1129234
1623,Champlin,MN,23926,45.1888539,-93.3974538
1624,Leland,NC,23921,34.2203056,-78.0335992
1625,Kenmore,WA,23904,47.7573202,-122.2440148
1626,Munster,IN,23895,41.5644798,-87.5125412
1627,Freeport,IL,23891,42.2966861,-89.6212271
1628,Forney,TX,23883,32.747893,-96.4719289
1629,Fountain Hills,AZ,23871,33.6117105,-111.7173613
1630,Highland,IN,23847,41.5536529,-87.4520484
1631,South Elgin,IL,23839,41.9941938,-88.2922996
1632,Jacksonville Beach,FL,23805,30.2946859,-81.3931396
1633,Patterson,CA,23780,37.471623,-121.1296949
1634,Yukon,OK,23763,35.5067259,-97.7625386
1635,Muscatine,IA,23713,41.4776121,-91.1210053
1636,Roseburg,OR,23690,43.216505,-123.3417381
1637,Columbus,MS,23682,33.4956744,-88.4272627
1638,Watauga,TX,23603,32.8579056,-97.2547371
1639,Farragut,TN,23595,35.8845238,-84.1535261
1640,Maple Heights,OH,23584,41.4153313,-81.565956
1641,Simpsonville,SC,23575,34.7370639,-82.2542834
1642,Lexington,SC,23554,33.9804494,-81.2374167
1643,Christiansburg,VA,23519,37.1298517,-80.4089389
1644,Farmington,MN,23517,44.6402434,-93.1435497
1645,Belton,TX,23507,31.0560132,-97.464453
1646,Rock Springs,WY,23481,41.5860557,-109.2194544
1647,New Brighton,MN,23473,45.0628999,-93.2060969
1648,Greenfield,IN,23436,39.7855096,-85.7681979
1649,Pottstown,PA,23436,40.2452976,-75.6496424
1650,Nixa,MO,23435,37.0439358,-93.3098534
1651,Brookings,SD,23430,44.30025455,-96.78595151
1652,Griffin,GA,23426,33.2467807,-84.2640904
1653,Clinton,UT,23411,41.1396708,-112.0505108
1654,Gardner,KS,23400,38.8109254,-94.9272958
1655,Maywood,IL,23389,41.8789942,-87.8436412
1656,Loves Park,IL,23364,42.3200189,-89.0581621
1657,Shelbyville,TN,23333,35.483406,-86.4602717
1658,Middletown,DE,23315,39.4496857,-75.7166811
1659,Pickerington,OH,23314,39.8962773,-82.7731905
1660,North Platte,NE,23276,41.1238873,-100.7654232
1661,Crystal,MN,23260,45.031823,-93.3606072
1662,Calabasas,CA,23232,34.1446643,-118.6440973
1663,Oakdale,CA,23186,37.7665947,-120.8471545
1664,Van Buren,AR,23174,35.5759086,-92.4916144
1665,Eustis,FL,23156,28.85181715,-81.71085534
1666,Cartersville,GA,23151,34.1650972,-84.7999383
1667,Garden City,NY,23129,40.7266477,-73.6343052
1668,Millbrae,CA,23129,37.598958,-122.4009419
1669,Edgewater,FL,23116,28.9888754,-80.9022758
1670,Hudson,OH,23064,41.240056,-81.440667
1671,Easley,SC,23064,34.8269276,-82.5817053
1672,Raymore,MO,23033,38.810131,-94.4676501
1673,Laguna Beach,CA,23033,33.5426975,-117.785366
1674,Searcy,AR,23021,35.9018987,-92.7098744
1675,Trotwood,OH,23006,39.7972788,-84.3113334
1676,Fernley,NV,22979,39.6048048,-119.2404748
1677,Hopewell,VA,22967,37.3043154,-77.2872001
1678,Radcliff,KY,22953,37.8403456,-85.9491298
1679,Junction City,KS,22943,39.0286093,-96.8313978
1680,Keene,NH,22942,42.933597,-72.2784264
1681,Hialeah Gardens,FL,22933,25.8650961,-80.3244958
1682,Roselle,IL,22921,41.9849897,-88.0797182
1683,Prairie Village,KS,22921,38.9914109,-94.6332768
1684,Watertown,WI,22885,43.1948481,-88.7286352
1685,Machesney Park,IL,22861,42.3472406,-89.0389956
1686,Bonney Lake,WA,22798,47.1870191,-122.1702293
1687,Cudahy,CA,22792,33.9620584,-118.1835395
1688,Oxford,OH,22730,39.5103048,-84.7420519
1689,Marshall,TX,22696,32.5447756,-94.3661004
1690,North Plainfield,NJ,22678,40.6301025,-74.4273743
1691,Corinth,TX,22661,33.1540091,-97.0647322
1692,Summit,NJ,22653,40.7182356,-74.3592296
1693,Roselle,NJ,22623,40.6503925,-74.26088333
1694,Watertown,SD,22613,44.899211,-97.115289
1695,Horizon City,TX,22611,31.6926121,-106.207479
1696,Katy,TX,22588,29.7857853,-95.8243956
1697,Conway,SC,22587,33.8360035,-79.0478143
1698,Duncan,OK,22576,34.5023029,-97.9578129
1699,Fairhope,AL,22562,30.5231647,-87.9028458
1700,Central Falls,RI,22562,41.8906553,-71.3922785
1701,Biddeford,ME,22491,43.4925843,-70.4533844
1702,Golden Valley,MN,22472,44.9861176,-93.3784618
1703,Corcoran,CA,22461,36.098007,-119.5604015
1704,Blue Island,IL,22441,41.6572753,-87.6801848
1705,East Peoria,IL,22423,40.666149,-89.5800978
1706,Mountain Brook,AL,22409,33.481719,-86.74500121
1707,Acworth,GA,22399,34.0659329,-84.6768796
1708,La Porte,IN,22395,41.6105983,-86.7225227
1709,Albertville,AL,22385,34.2675937,-86.2088669
1710,DeBary,FL,22385,28.8830604,-81.3088385
1711,Marina,CA,22364,36.6900986,-121.8006293
1712,Coralville,IA,22359,41.6764044,-91.5804475
1713,Bloomingdale,IL,22325,41.9575285,-88.0809036
1714,Chambersburg,PA,22325,39.9405903,-77.6598624
1715,Oxford,AL,22306,33.583652,-85.94245223
1716,Greenwood,SC,22297,34.1921466,-82.16142445
1717,Waynesboro,VA,22279,38.0686668,-78.8893999
1718,Evans,CO,22259,40.3763701,-104.6921874
1719,Clarksville,IN,22253,38.2967791,-85.7602087
1720,Villa Park,IL,22235,41.8891319,-87.9774854
1721,Sunny Isles Beach,FL,22221,25.9426915,-80.1218486
1722,East Ridge,TN,22133,35.0142412,-85.2519003
1723,Ruston,LA,22120,32.5232053,-92.637927
1724,Secaucus,NJ,22113,40.7899291,-74.0566735
1725,Hastings,MN,22079,44.7426933,-92.8518697
1726,Chillicothe,OH,22056,39.3331197,-82.9824019
1727,Darien,IL,21990,41.7508713,-87.9739593
1728,Sapulpa,OK,21981,36.0005035,-96.1049612
1729,Pascagoula,MS,21963,30.3646795,-88.5585995
1730,Portsmouth,NH,21963,43.0702223,-70.7548621
1731,Sanford,ME,21956,43.438878,-70.7739832
1732,Middleton,WI,21948,43.0962919,-89.5119565
1733,Columbia Heights,MN,21947,45.0460458,-93.2517802
1734,North Salt Lake,UT,21927,40.8485564,-111.906882
1735,Shelby,NC,21905,35.2852619,-81.53798614
1736,Klamath Falls,OR,21885,42.224867,-121.7816704
1737,Port Hueneme,CA,21880,34.1477558,-119.1951559
1738,New Castle,PA,21877,40.9999202,-80.3471856
1739,Carbondale,IL,21871,37.7274692,-89.216655
1740,New Hope,MN,21846,45.0347176,-93.3861037
1741,South Euclid,OH,21845,41.5231076,-81.5184553
1742,Del City,OK,21828,35.442007,-97.4408709
1743,American Canyon,CA,21800,38.1749179,-122.2608044
1744,Birmingham,MI,21789,42.5467012,-83.2113192
1745,Alliance,OH,21785,40.9153362,-81.1059309
1746,Gallup,NM,21765,35.5283506,-108.743907
1747,Sulphur,LA,21758,30.2365943,-93.3773783
1748,Tukwila,WA,21758,47.4627356,-122.2559156
1749,Yucca Valley,CA,21752,34.1236205,-116.4139839
1750,Rocky River,OH,21699,41.4756031,-81.8393034
1751,Sedalia,MO,21695,38.7098314,-93.2295515
1752,Ashland,KY,21653,38.4784144,-82.6379387
1753,Duarte,CA,21649,34.1394513,-117.9772873
1754,Park Forest,IL,21632,41.4825788,-87.6802344
1755,Avon,IN,21624,39.76201,-86.39295386
1756,Yorkville,IL,21599,41.6411409,-88.4472948
1757,Lindenwold,NJ,21574,39.81812,-74.97996222
1758,Seymour,IN,21563,38.9592201,-85.8902547
1759,Mukilteo,WA,21486,47.9474034,-122.3036992
1760,Dickinson,TX,21461,29.4607876,-95.0513173
1761,Baldwin,PA,21456,40.3381252,-79.9789405
1762,Vicksburg,MS,21440,32.3528055,-90.8777342
1763,Carrboro,NC,21435,35.9099875,-79.0752876
1764,Ashland,OR,21419,42.1972487,-122.7153995
1765,South Holland,IL,21411,41.6008681,-87.6069894
1766,Elmwood Park,NJ,21393,40.9074237,-74.1183543
1767,Louisville,CO,21370,39.977763,-105.1319296
1768,Pleasant Prairie,WI,21363,42.5269718,-87.8544568
1769,East Moline,IL,21352,41.5155176,-90.4411683
1770,Dolton,IL,21350,41.6389236,-87.607268
1771,Geneva,IL,21342,41.8875281,-88.3053525
1772,Payson,UT,21326,40.0443989,-111.7321518
1773,Anniston,AL,21308,33.6624824,-85.8283224
1774,South Lake Tahoe,CA,21304,38.9332411,-119.9843482
1775,Ozark,MO,21300,36.6467816,-92.4575198
1776,Mountlake Terrace,WA,21268,47.7909667,-122.3066395
1777,Gardner,MA,21252,42.5823564,-71.9831716
1778,Grayslake,IL,21235,42.3433518,-88.0412192
1779,Lino Lakes,MN,21226,45.1602442,-93.0888324
1780,Clemmons,NC,21217,36.0215258,-80.3819984
1781,Murphy,TX,21141,33.0151208,-96.6130478
1782,Hyattsville,MD,21126,38.9529442,-76.9408647
1783,Mount Pleasant,MI,21124,43.597646,-84.7668495
1784,Milwaukie,OR,21109,45.4440051,-122.6412523
1785,Helena,AL,21095,33.296224,-86.8436004
1786,North Ogden,UT,21088,41.3071354,-111.9601986
1787,Willmar,MN,20993,45.1219492,-95.0435373
1788,Suwanee,GA,20968,34.0514898,-84.0712997
1789,Murrysville,PA,20931,40.4284015,-79.697545
1790,Mineola,NY,20909,40.7492678,-73.6406845
1791,Perry,GA,20905,32.4586695,-83.7319658
1792,Stephenville,TX,20897,32.2191836,-98.2130634
1793,Hays,KS,20894,38.8791783,-99.3267702
1794,Covington,WA,20888,47.3657791,-122.100222
1795,Lomita,CA,20885,33.8036545,-118.3195014
1796,Fort Walton Beach,FL,20882,30.4057552,-86.618842
1797,Mill Creek,WA,20879,47.8577455,-122.2210628
1798,Germantown,WI,20872,43.5258118,-90.221516
1799,Battle Ground,WA,20856,45.7813532,-122.5337433
1800,Arnold,MO,20844,38.4226711,-90.3758287
1801,Lebanon,OH,20841,39.4353373,-84.2029922
1802,Lockport,NY,20834,43.28243305,-78.7076489
1803,Waxhaw,NC,20772,34.9248125,-80.7440174
1804,Parma Heights,OH,20769,41.3900518,-81.7595769
1805,South Milwaukee,WI,20765,42.9105722,-87.8606367
1806,Bryant,AR,20744,34.5959265,-92.4890469
1807,South St. Paul,MN,20737,44.8938832,-93.0368359
1808,Northfield,MN,20712,44.4582041,-93.161159
1809,Bethany,OK,20708,35.5186728,-97.6322648
1810,Forest Lake,MN,20704,45.279106,-92.9851629
1811,Pittsburg,KS,20702,37.4108841,-94.70496
1812,Hanahan,SC,20672,32.9138914,-80.0088359
1813,North Liberty,IA,20622,41.748868,-91.5972564
1814,Foley,AL,20601,30.4065868,-87.6835974
1815,Mesquite,NV,20599,36.8035642,-114.0671413
1816,Adrian,MI,20597,41.8975152,-84.0373054
1817,Pleasantville,NJ,20587,39.3898388,-74.5240422
1818,Libertyville,IL,20566,42.2830786,-87.9531303
1819,Elko,NV,20562,41.1958128,-115.3272864
1820,La Caada Flintridge,CA,20556,34.1998302,-118.2005236
1821,West St. Paul,MN,20535,44.9101545,-93.0802073
1822,Sidney,OH,20534,40.2842164,-84.1554987
1823,Snellville,GA,20521,33.857328,-84.0199108
1824,Glassboro,NJ,20475,39.7027677,-75.1119434
1825,St. John,IN,20449,41.4500356,-87.4700381
1826,Imperial,CA,20425,33.0305487,-115.3595666
1827,Sherwood,OR,20407,45.3569315,-122.8403744
1828,Monroe,MI,20406,41.9153358,-83.5135665
1829,Saco,ME,20405,43.5009176,-70.4428286
1830,Westbrook,ME,20404,43.6763036,-70.3663874
1831,Montgomery,IL,20403,39.2052633,-89.5057126
1832,Lynbrook,NY,20398,40.6548253,-73.6717969
1833,Crest Hill,IL,20389,41.554753,-88.0986709
1834,Tullahoma,TN,20386,35.3620235,-86.2094342
1835,Piqua,OH,20368,40.1447732,-84.2424449
1836,Marquette,MI,20360,46.4481521,-87.6305899
1837,Ypsilanti,MI,20357,42.2410562,-83.613055
1838,Montrose,CO,20356,38.4375391,-108.2403855
1839,Painesville,OH,20334,41.7244885,-81.245657
1840,Portland,TX,20332,27.8818828,-97.3188666
1841,Frankfort,IL,20319,41.4958665,-87.8486613
1842,Palisades Park,NJ,20319,40.8481556,-73.997639
1843,Mayfield Heights,OH,20264,41.5192189,-81.457896
1844,Agoura Hills,CA,20262,34.14791,-118.7657042
1845,South Burlington,VT,20257,44.4669941,-73.1709604
1846,Harvey,IL,20255,41.6100344,-87.6467132
1847,Ennis,TX,20215,32.3293111,-96.6252679
1848,Otsego,MN,20173,45.2812733,-93.614857
1849,Culpeper,VA,20156,38.4733823,-77.9961275
1850,Morristown,NJ,20147,40.7970382,-74.4809868
1851,Hurricane,UT,20146,37.1750272,-113.289888
1852,Forest Park,OH,20119,39.2903353,-84.5041108
1853,Monroe,WA,20109,47.8552259,-121.971335
1854,Whitehall,OH,20108,39.9667308,-82.8854559
1855,Golden,CO,20107,39.7546349,-105.2205809
1856,Mustang,OK,20092,35.384227,-97.7244813
1857,Mamaroneck,NY,20082,40.9544317,-73.7361239
1858,Shafter,CA,20070,35.5005139,-119.2717761
1859,Carlisle,PA,20051,40.201499,-77.1890783
1860,Howard,WI,20038,44.5433912,-88.0880213
1861,Shelbyville,IN,20022,39.5214373,-85.7769238
1862,Coronado,CA,20015,32.6915199,-117.1766947
1863,Forest Park,GA,19993,33.6220542,-84.3690918
1864,Port Angeles,WA,19979,48.118146,-123.4307413
1865,Albany,CA,19977,37.88687,-122.2977475
1866,Arlington,WA,19975,48.1810957,-122.1389548
1867,Westminster,MD,19960,39.5752639,-76.9959277
1868,Sand Springs,OK,19940,36.1394339,-96.1100025
1869,Rolla,MO,19939,37.9509324,-91.7708076
1870,Oregon,OH,19930,41.6436603,-83.4868768
1871,Plainview,TX,19926,34.1847936,-101.7068417
1872,Oroville,CA,19918,39.5137752,-121.556359
1873,Lackawanna,NY,19915,41.417964,-75.7065335
1874,Plattsburgh,NY,19914,44.69282,-73.45562
1875,Broadview Heights,OH,19872,41.3139426,-81.6851271
1876,Mokena,IL,19863,41.5261437,-87.8892189
1877,Miamisburg,OH,19857,39.6428362,-84.2866083
1878,Evergreen Park,IL,19846,41.720136,-87.7013258
1879,Nogales,AZ,19807,31.3402134,-110.9360818
1880,Kinston,NC,19752,35.2626635,-77.5816353
1881,Lake Zurich,IL,19749,42.1969689,-88.0934108
1882,Hermosa Beach,CA,19735,33.86428,-118.39591
1883,Liberal,KS,19723,37.0430812,-100.920999
1884,Universal City,TX,19713,29.5480071,-98.2911235
1885,Zachary,LA,19676,30.6485191,-91.1564961
1886,Alamo,TX,19658,26.1836854,-98.1230638
1887,South El Monte,CA,19657,34.0519548,-118.0467339
1888,Brigham City,UT,19647,41.5103717,-112.0155619
1889,Erlanger,KY,19641,39.0167275,-84.6007773
1890,Altoona,IA,19638,41.6437308,-93.4696031
1891,Warrensburg,MO,19573,38.7624373,-93.7409596
1892,Hawthorne,NJ,19572,40.9492649,-74.1537549
1893,Punta Gorda,FL,19570,26.9297836,-82.0453664
1894,Madisonville,KY,19549,37.3280037,-87.4986989
1895,West Mifflin,PA,19544,40.3634026,-79.8664375
1896,Orinda,CA,19525,37.8771476,-122.1796888
1897,Arvin,CA,19498,35.209129,-118.828431
1898,Knightdale,NC,19493,35.7878975,-78.4822938
1899,Lexington,NC,19488,35.8240265,-80.2533838
1900,Hermiston,OR,19472,45.8404101,-119.2894605
1901,Maitland,FL,19460,28.6274723,-81.3656392
1902,Sartell,MN,19457,45.6216319,-94.2069365
1903,Harrison,NJ,19439,40.7464901,-74.1562551
1904,Angleton,TX,19433,29.16941,-95.4318847
1905,Highland,UT,19396,40.4207683,-111.7927335
1906,Brookfield,IL,19392,41.8228378,-87.848085
1907,Stillwater,MN,19390,45.0564041,-92.8134982
1908,Seminole,FL,19384,28.7225829,-81.2353683
1909,Homewood,IL,19375,41.5573283,-87.6654739
1910,Ellensburg,WA,19373,46.9970635,-120.5451223
1911,Ashland,OH,19371,40.8686147,-82.3175942
1912,Lakeway,TX,19333,30.3644888,-97.9875325
1913,Lake Forest,IL,19305,42.2586342,-87.840625
1914,Orange,TX,19283,30.1228634,-93.9041169
1915,Maumelle,AR,19267,34.856613,-92.4056858
1916,Bartow,FL,19262,27.8963791,-81.8431567
1917,Prichard,AL,19259,30.7387998,-88.0788889
1918,Twinsburg,OH,19254,41.3125552,-81.4401129
1919,Sweetwater,FL,19233,25.7634334,-80.3731086
1920,Ferndale,MI,19212,42.4605917,-83.1346478
1921,Claremore,OK,19182,36.3126005,-95.6160686
1922,Deerfield,IL,19178,42.1711365,-87.8445119
1923,Winthrop Town,MA,19166,42.375897,-70.9888105
1924,Winchester,KY,19153,37.990079,-84.1796503
1925,Hammond,LA,19141,30.5043583,-90.4611995
1926,Tinton Falls,NJ,19132,40.2890734,-74.0927967
1927,Harrisburg,NC,19097,35.3258295,-80.6454979
1928,Springboro,OH,19096,39.5522815,-84.2332718
1929,North Myrtle Beach,SC,19090,33.8278405,-78.6800323
1930,Weirton,WV,19086,40.4189566,-80.5895167
1931,Arcata,CA,19084,40.866517,-124.08284
1932,Santa Fe Springs,CA,19083,33.9480787,-118.0691499
1933,Naples,FL,19080,26.1421976,-81.7942944
1934,Cocoa,FL,19074,28.3553873,-80.7318827
1935,Central Point,OR,19049,42.376782,-122.912721
1936,Durango,CO,19046,37.2395367,-107.8215818
1937,Hopkins,MN,19032,44.9271194,-93.4074945
1938,Sylvania,OH,19013,41.7189392,-83.7129935
1939,Matteson,IL,19010,41.509832,-87.739267
1940,Gautier,MS,19000,30.385755,-88.6116855
1941,Greenfield,CA,18995,36.3207998,-121.243813
1942,Pinole,CA,18993,38.0043667,-122.2988587
1943,Fox Crossing,WI,18984,44.2234752,-88.4700616
1944,Norwood,OH,18980,39.1556149,-84.4596641
1945,Point Pleasant,NJ,18977,40.0831714,-74.0681931
1946,Alsip,IL,18963,41.6689223,-87.7386619
1947,Fayetteville,GA,18955,33.4487257,-84.4549262
1948,Dixon,CA,18947,38.4454641,-121.8232958
1949,Bourbonnais,IL,18928,41.1639309,-87.8839693
1950,Augusta,ME,18923,44.310545,-69.7792759
1951,Groveland,FL,18914,28.5602149,-81.8561226
1952,Thomasville,GA,18898,30.8365815,-83.9787808
1953,Ansonia,CT,18880,41.3429922,-73.0787468
1954,Marshfield,WI,18843,44.6688524,-90.1717987
1955,Onalaska,WI,18841,43.8830606,-91.2343539
1956,Tavares,FL,18836,28.8041579,-81.725632
1957,Cumberland,MD,18825,39.6526498,-78.762383
1958,Sheridan,WY,18821,44.7800215,-106.9508107
1959,Chowchilla,CA,18821,37.094309,-120.1561626
1960,Lumberton,NC,18806,34.6183433,-79.0083993
1961,Springfield,TN,18804,36.5092119,-86.8849984
1962,Ottawa,IL,18802,41.3516628,-88.845436
1963,Lansdale,PA,18800,40.2414952,-75.2837862
1964,Rutherford,NJ,18799,40.826489,-74.1068091
1965,Republic,MO,18797,37.1202149,-93.4807001
1966,Creve Coeur,MO,18794,38.6613007,-90.4423653
1967,Brownwood,TX,18789,31.7070026,-98.9831022
1968,Wisconsin Rapids,WI,18783,44.3917589,-89.8228767
1969,Martinsburg,WV,18759,39.4562528,-77.9639604
1970,Bensenville,IL,18742,41.9538384,-87.9431781
1971,Round Lake,IL,18719,42.353355,-88.0934145
1972,Durant,OK,18703,33.9919761,-96.3776762
1973,Bellwood,IL,18697,41.8814197,-87.883117
1974,Altus,OK,18677,34.6381255,-99.3339754
1975,Elizabeth City,NC,18655,36.2956836,-76.2247697
1976,Clive,IA,18646,41.6096559,-93.7754644
1977,Nederland,TX,18633,29.9743803,-93.9923965
1978,Berea,OH,18616,41.3661614,-81.8543026
1979,Lynn Haven,FL,18611,30.2454776,-85.648261
1980,Phoenixville,PA,18591,40.1303822,-75.5149128
1981,West Chester,PA,18570,39.9597213,-75.6059638
1982,Newton,KS,18530,38.0469166,-97.3447244
1983,Brook Park,OH,18521,41.3983838,-81.8045788
1984,Albert Lea,MN,18518,43.6480127,-93.3682656
1985,Kingsland,GA,18517,30.7999563,-81.6898261
1986,Ferguson,MO,18510,38.744707,-90.3038975
1987,Sycamore,IL,18487,41.9889173,-88.6867538
1988,Trenton,MI,18484,42.1406552,-83.1800544
1989,Palos Hills,IL,18450,41.6966397,-87.816924
1990,Lebanon,OR,18447,44.5365467,-122.9068762
1991,Fate,TX,18432,32.9488451,-96.38535187
1992,Dover,NJ,18431,40.883988,-74.5621025
1993,Logansport,IN,18426,40.7545006,-86.3567356
1994,Seagoville,TX,18426,32.6447916,-96.5418608
1995,East St. Louis,IL,18423,38.6244952,-90.1509429
1996,Arroyo Grande,CA,18420,35.1185869,-120.590725
1997,Ocean Springs,MS,18413,30.4112904,-88.8279165
1998,St. Marys,GA,18410,30.7305142,-81.5464928
1999,Palestine,TX,18406,31.7621153,-95.6307891
2000,Niles,OH,18390,41.1828353,-80.765358
2001,Johnstown,PA,18370,40.3267407,-78.9219698
2002,Tallmadge,OH,18370,41.1014616,-81.4417989
2003,Franklin Park,IL,18366,41.9353084,-87.865618
2004,Crowley,TX,18356,32.5782835,-97.3609829
2005,Alton,TX,18344,26.2871257,-98.3137779
2006,Manchester,MO,18339,38.5925305,-90.5107453
2007,La Marque,TX,18333,29.3685674,-94.9713134
2008,Newburyport,MA,18313,42.8125913,-70.8772751
2009,North Aurora,IL,18312,41.8061399,-88.3272952
2010,Sevierville,TN,18310,35.8667112,-83.5620518
2011,Fairmont,WV,18297,39.4850848,-80.1425781
2012,Pinecrest,FL,18289,25.6670476,-80.3081074
2013,St. Michael,MN,18286,45.210202,-93.6648083
2014,Centralia,WA,18272,46.7204489,-122.9614303
2015,McAlester,OK,18269,34.9334981,-95.7697934
2016,Winder,GA,18266,33.9919085,-83.7184368
2017,Menasha,WI,18244,44.2022293,-88.4465361
2018,Oconomowoc,WI,18228,43.1116731,-88.4992659
2019,Lenoir,NC,18226,35.9140196,-81.5389849
2020,Cullman,AL,18215,34.1335332,-86.8779268
2021,White Settlement,TX,18215,32.7595737,-97.4583538
2022,Centerton,AR,18213,36.3652679,-94.2886875
2023,Mount Washington,KY,18195,38.0500627,-85.5457877
2024,Colonial Heights,VA,18191,37.2555718,-77.4112016
2025,Shorewood,IL,18182,41.5200305,-88.2017293
2026,Canby,OR,18175,45.2629088,-122.6925983
2027,Amsterdam,NY,18175,40.782832,-73.978328
2028,Cudahy,WI,18171,42.959738,-87.861471
2029,Portsmouth,OH,18133,38.7316375,-82.9965441
2030,Scarsdale,NY,18133,40.9880495,-73.7974133
2031,Cohoes,NY,18097,42.7742446,-73.7001187
2032,Boone,NC,18065,36.2165362,-81.6746158
2033,Steubenville,OH,18055,40.3697905,-80.6339638
2034,Farmington,MO,18029,37.7803037,-90.4226371
2035,Bay City,TX,17968,28.9827565,-95.969402
2036,Panama City Beach,FL,17965,30.1765914,-85.805386
2037,Selma,AL,17960,32.4078632,-87.0207473
2038,Ashtabula,OH,17958,41.865054,-80.789809
2039,Pataskala,OH,17929,39.9955726,-82.6742373
2040,North Canton,OH,17927,40.875891,-81.4023356
2041,Natchitoches,LA,17918,31.7606732,-93.0860209
2042,Tiffin,OH,17909,41.114485,-83.1779537
2043,Jacksonville,IL,17901,39.7343037,-90.2288356
2044,Mebane,NC,17876,36.0966835,-79.27085472
2045,Dumont,NJ,17875,40.9406541,-73.9968051
2046,Ammon,ID,17870,43.4750675,-111.9648016
2047,Anoka,MN,17830,45.2710195,-93.2827625
2048,Gretna,LA,17825,29.9146493,-90.0539604
2049,Boerne,TX,17823,29.7946641,-98.7319703
2050,Cary,IL,17804,42.2119684,-88.2381381
2051,Clemson,SC,17800,34.6850749,-82.8364111
2052,Alice,TX,17795,27.7522487,-98.0697249
2053,Godfrey,IL,17781,38.9556031,-90.1867765
2054,Fulshear,TX,17775,29.690292,-95.8996261
2055,Mount Holly,NC,17757,35.2976298,-81.0161686
2056,Goodlettsville,TN,17734,36.3349115,-86.70533913
2057,Blythe,CA,17733,33.6134767,-114.5937537
2058,Hope Mills,NC,17729,34.9704419,-78.9453056
2059,Southbridge Town,MA,17711,42.074741,-72.02689426
2060,Celina,TX,17702,33.3238976,-96.785342
2061,McKeesport,PA,17702,40.3478472,-79.864215
2062,Wayne,MI,17680,42.2682408,-83.2844172
2063,Anacortes,WA,17675,48.5020123,-122.6237356
2064,Greenfield,MA,17669,42.5876342,-72.6002068
2065,Lemont,IL,17665,41.6737149,-88.0016263
2066,New Philadelphia,OH,17662,40.4897871,-81.4456706
2067,Laguna Woods,CA,17657,33.6106076,-117.7249722
2068,El Dorado,AR,17646,33.20763,-92.6662674
2069,Eastlake,OH,17624,41.6490337,-81.4378991
2070,Stafford,TX,17622,29.6160671,-95.5577221
2071,Pinehurst,NC,17621,35.1946235,-79.4679317
2072,Takoma Park,MD,17603,38.9778882,-77.0074765
2073,Troy,AL,17579,31.8087678,-85.969951
2074,Princeton,TX,17573,33.1801161,-96.4980424
2075,Kirksville,MO,17569,40.1948848,-92.5833939
2076,Norcross,GA,17553,33.9412127,-84.2135309
2077,St. Matthews,KY,17534,38.24988,-85.63574236
2078,Terrell,TX,17526,30.1990738,-102.0974881
2079,South Ogden,UT,17497,41.1918934,-111.9713429
2080,Brenham,TX,17473,30.1668828,-96.3977442
2081,Morganton,NC,17468,35.7454291,-81.6870837
2082,New Castle,IN,17429,39.9289351,-85.3702477
2083,Anna,TX,17407,33.34928,-96.54938
2084,Bluffdale,UT,17402,40.4896712,-111.9388244
2085,Stuart,FL,17400,27.197983,-80.2519175
2086,Hinsdale,IL,17388,41.8024604,-87.9299841
2087,Coalinga,CA,17384,36.139678,-120.3601496
2088,Cortland,NY,17380,41.2486935,-73.90858593
2089,Streetsboro,OH,17376,41.239223,-81.345941
2090,Fort Thomas,KY,17370,39.0786242,-84.4483432
2091,Los Lunas,NM,17370,34.8142093,-106.7613067
2092,Gainesville,TX,17366,33.6259414,-97.1333453
2093,Johnstown,CO,17356,40.36544125,-104.9483435
2094,West Columbia,SC,17352,33.9934867,-81.0739826
2095,Amesbury Town,MA,17345,42.8533154,-70.94052572
2096,Charleston,IL,17333,39.4961458,-88.1761521
2097,Conyers,GA,17309,33.6676103,-84.0176904
2098,Aurora,OH,17295,41.317555,-81.345386
2099,Danville,KY,17283,37.6456488,-84.7721823
2100,Shelbyville,KY,17278,38.2120144,-85.2235666
2101,Bristol,VA,17259,36.5959685,-82.1885009
2102,El Segundo,CA,17253,33.917028,-118.4156337
2103,Zephyrhills,FL,17249,28.24262955,-82.18125318
2104,Tifton,GA,17240,31.4522765,-83.5096866
2105,West Haven,UT,17233,41.2049578,-112.0488985
2106,Milledgeville,GA,17228,33.0801429,-83.2320991
2107,Fairview Park,OH,17222,41.4461727,-81.8526519
2108,Beckley,WV,17207,37.7781702,-81.1881557
2109,Siloam Springs,AR,17201,36.1881365,-94.5404962
2110,Bellaire,TX,17185,29.7057858,-95.4588299
2111,Wixom,MI,17184,42.5247729,-83.5363339
2112,El Reno,OK,17183,35.532198,-97.9550578
2113,Graham,NC,17170,36.0690258,-79.4005756
2114,Groves,TX,17151,29.9482695,-93.9171155
2115,Caon City,CO,17147,38.4423644,-105.2224947
2116,Laurel,MS,17146,31.6940509,-89.1306124
2117,Buford,GA,17145,34.1206564,-84.0043513
2118,Manassas Park,VA,17140,38.7840035,-77.4697111
2119,Murray,KY,17118,36.6103334,-88.314761
2120,Hannibal,MO,17106,39.7082498,-91.3587413
2121,Massapequa Park,NY,17100,40.6803785,-73.4551241
2122,Villa Rica,GA,17099,33.732052,-84.9191081
2123,Morton,IL,17097,40.6127349,-89.459323
2124,Hernando,MS,17072,34.8239518,-89.9937018
2125,Calhoun,GA,17055,34.502587,-84.9510542
2126,Kaukauna,WI,17053,44.2780432,-88.2720503
2127,Aberdeen,WA,17045,46.975371,-123.815722
2128,Norwalk,OH,17044,41.2424219,-82.6155745
2129,Safety Harbor,FL,17040,27.9908529,-82.6931553
2130,Washougal,WA,17038,45.5819594,-122.3479921
2131,Clayton,MO,17035,38.6504352,-90.3362473
2132,Defiance,OH,17019,41.2844933,-84.3557802
2133,Rancho Mirage,CA,17013,33.770859,-116.426874
2134,Bridgeview,IL,17011,41.7500323,-87.8042216
2135,Huntington,IN,17000,40.8831011,-85.497476
2136,Easton,MD,17000,38.7744952,-76.0763065
